place,year,mass_g,longitude,latitude,fell_found,Include
Hoba,1920,60000000,17.91667,-19.58333,Found,1
Cape York,1818,58200000,-64.93333,76.13333,Found,1
Campo del Cielo,1576,50000000,-60.58333,-27.46667,Found,1
Canyon Diablo,1891,30000000,-111.03333,35.05,Found,1
Armanty,1898,28000000,88,47,Found,1
Gibeon,1836,26000000,18,-25.5,Found,1
Chupaderos,1852,24300000,-105.1,27,Found,1
Mundrabilla,1911,24000000,127.55,-30.78333,Found,1
Sikhote-Alin,1947,23000000,134.65333,46.16,Fell,1
Bacubirito,1863,22000000,-107.83333,26.2,Found,1
Mbosi,1930,16000000,33.06667,-9.11667,Found,1
Willamette,1902,15500000,-122.58333,45.36667,Found,1
Morito,1600,10100000,-105.43333,27.05,Found,1
Nantan,1958,9500000,107.7,25.1,Found,1
Cranbourne,1854,8600000,145.3,-38.1,Found,1
Santa Catharina,1875,7000000,-48.6,-26.21667,Found,1
Bendegï,1784,5360000,-39.2,-10.11667,Found,1
Brenham,1882,4300000,-99.16361,37.5825,Found,1
Jilin,1976,4000000,126.16667,44.05,Fell,1
Vaca Muerta,1861,3828000,-70.5,-25.75,Found,1
Toluca,1776,3000000,-99.56667,19.56667,Found,0
Xifu,2004,3000000,120.48333,36.3,Found,0
Al Haggounia 001,2006,3000000,-12.5,27.5,Found,0
Old Woman,1976,2753000,-115.23333,34.46667,Found,0
Wabar,1863,2550000,50.47222,21.49972,Found,0
Huckitta,1924,2300000,135.76667,-22.36667,Found,0
Navajo,1921,2184000,-109.5,35.33333,Found,0
Coahuila,1837,2100000,-102.73333,28.7,Found,0
Henbury,1931,2000000,133.16667,-24.56667,Found,0
Campinorte,1992,2000000,-49.15917,-14.258,Found,0
Allende,1969,2000000,-105.31667,26.96667,Fell,0
Santa Luzia,1921,1918000,-47.95,-16.26667,Found,0
Ghubara,1954,1750000,56.14278,19.22778,Found,0
Odessa (iron),1922,1600000,-102.4,31.71667,Found,0
Gebel Kamil,2009,1600000,26.08778,22.01833,Found,0
Casas Grandes,1867,1545000,-107.8,30.4,Found,0
Bitburg,1805,1500000,6.53333,49.96667,Found,0
Quinn Canyon,1908,1450000,-115.53333,38.08333,Found,0
Charcas,1804,1400000,-101.01667,23.08333,Found,0
Santa Apolonia,1872,1316000,-98.3,19.21667,Found,0
Tsarev,1968,1225300,45.7,48.7,Found,0
Alkhamasin,1973,1200000,44.88333,20.6,Found,0
Kouga Mountains,1903,1173000,24,-33.61667,Found,0
Goose Lake,1938,1169500,-120.54167,41.98,Found,0
Murnpeowie,1909,1143000,139.9,-29.58333,Found,0
Norton County,1948,1100000,-99.86667,39.68333,Fell,0
Kunya-Urgench,1998,1100000,59.2,42.25,Fell,0
Fukang,2000,1003000,87.63333,44.43333,Found,0
Bilibino,1981,1000000,160.8,67.3,Found,0
Los Sauces,1937,997000,-66.85,-29.41667,Found,0
Tucson,1850,975000,-110.96667,31.85,Found,0
Cosby's Creek,1837,960000,-83.25,35.78333,Found,0
Imilac,1822,920000,-68.80667,-24.20333,Found,0
Bondoc,1956,888600,122.45,13.51667,Found,0
Santa Rosa,1810,825000,-73,5.91667,Found,0
Brahin,1810,823000,30.33333,52.5,Found,0
Red River,1808,800000,-95,32,Found,0
Sardis,1940,800000,-81.865,32.94889,Found,0
Wolf Creek,1947,760000,127.76667,-19.3,Found,0
Esquel,1951,755000,-71.33333,-42.9,Found,0
Gladstone (iron),1915,736600,151.3,-23.9,Found,0
Mount Dooling,1909,734000,119.71667,-29.45,Found,0
Krasnojarsk,1749,700000,91.8,54.9,Found,0
Plainview (1917),1917,700000,-101.78333,34.11667,Found,0
Ngiangri,1983,700000,87.8,32.2,Found,0
Davis Mountains,1903,689000,-104.25,30.75,Found,0
Arispe,1896,683000,-109.98333,30.33333,Found,0
Itapuranga,,628000,-50.15,-15.58333,Found,0
La Caille,1828,626000,6.78333,43.73333,Found,0
Jianshi,1890,600000,109.5,30.80833,Fell,0
Adzhi-Bogdo (iron),1952,582000,95.41667,44.86667,Found,0
Long Island,1891,564000,-99.6,39.93333,Found,0
JaH 073,2002,550000,55.73333,19.7,Found,0
Rateldraai,1909,549000,21.13333,-28.83333,Found,0
Drum Mountains,1944,529000,-112.9,39.5,Found,0
Grant,1929,525000,-107.88333,35.16667,Found,0
Tamentit,1864,510000,-0.25,27.71667,Found,0
Trenton,1858,505000,-88.13333,43.36667,Found,0
Haig,1951,503000,125.63333,-31.38333,Found,0
Prambanan,1797,500000,110.83333,-7.56667,Found,0
Boxhole,1937,500000,135.2,-22.61667,Found,0
El Timbu,1942,500000,-60.96667,-33.11667,Found,0
Wildara,1968,500000,120.85,-28.23333,Found,0
Knyahinya,1866,500000,22.4,48.9,Fell,0
Ochansk,1887,500000,55.26667,57.78333,Fell,0
Jepara,2008,499500,110.73333,-6.6,Found,0
Saint-Aubin,1968,472000,3.58333,48.48333,Found,0
Carbo,1923,454000,-111.5,29.66667,Found,0
Etter,1965,450000,-101.9,35.98333,Found,0
SaU 001,2000,450000,56.66667,20.51667,Found,0
Wallapai,1927,430000,-113.7,35.8,Found,0
Ulasitai,2004,430000,91.4025,44.95667,Found,0
Paragould,1930,408000,-90.5,36.06667,Fell,0
ALHA76009,1976,407000,159.66667,-76.71667,Found,0
Augustinovka,1890,400000,35.08333,48.06667,Found,0
Pei Xian,1917,400000,117,34.7,Found,0
Mount Joy,1887,384000,-77.21667,39.78333,Found,0
Mont Dieu,1994,360000,4.86667,49.55,Found,0
Hugoton,1927,350000,-101.35,37.2,Found,0
Longtian,1991,350000,108.5,27.35,Found,0
Kokstad,1884,341000,29.41667,-30.55,Found,0
BjurbÌ¦le,1899,330000,25.8,60.4,Fell,0
Millbillillie,1960,330000,120.36667,-26.45,Fell,0
Mount Edith,1913,326000,116.16667,-22.5,Found,0
Sterlitamak,1990,325000,55.98333,53.66667,Fell,0
Seymchan,1967,323300,152.43333,62.9,Found,0
Tamarugal,1903,320000,-69.66667,-20.8,Found,0
Estherville,1879,320000,-94.83333,43.41667,Fell,0
Guffey,1907,309000,-105.51667,38.76667,Found,0
Nova Petropolis,1967,305000,-50.91667,-29.43333,Found,0
Gressk,1955,303000,27.33333,53.23333,Found,0
Bruderheim,1960,303000,-112.88333,53.9,Fell,0
North Chile,1875,300000,-69,-23,Found,0
Tianlin,1956,300000,106.1,24.3,Found,0
Mocs,1882,300000,24.03333,46.8,Fell,0
Putinga,1937,300000,-53.05,-29.03333,Fell,0
Morland,1890,295000,-100.06667,39.33333,Found,0
Estacado,1883,290000,-101.75,33.9,Found,0
Morasko,1914,290000,16.9,52.46667,Found,0
Bur-Abor,1997,290000,41.65,3.98333,Found,0
Clovis (no. 1),1961,283000,-103.13472,34.3,Found,0
Rio Limay,1995,280000,-69.48333,-39.85,Found,0
Sanclerlandia,1971,279000,-50.3,-16.21667,Found,0
South Dahna,1957,275000,48.3,22.56667,Found,0
Mount Padbury,1964,272000,118.1,-25.66667,Found,0
Saint-SÌ©verin,1966,271000,0.23333,45.3,Fell,0
Lake Murray,1933,270000,-97,34.1,Found,0
Miles,1992,265000,150.33333,-27.83333,Found,0
Potter,1941,261000,-103.3,41.23333,Found,0
Tishomingo,1965,260000,-96.68333,34.25,Found,0
Suizhou,1986,260000,113.46667,31.61667,Fell,0
Dalgety Downs,1941,257000,116.18333,-25.33333,Found,0
Dho 020,2000,256000,54.51667,19.03333,Found,0
Boguslavka,1916,256000,131.63333,44.55,Fell,0
Uegit,1921,252000,43.33333,3.81667,Found,0
Netschaï¿½ï¿½vo,1846,250000,35.15,54.23333,Found,0
Pultusk,1868,250000,21.26667,52.76667,Fell,0
Omolon,1981,250000,161.80833,64.02,Fell,0
Shangdu,1957,247000,114,42.5,Found,0
St. Genevieve County,1888,244500,-90.31667,37.96667,Found,0
El Hammami,1997,240000,-10.81667,23.28333,Found,0
Sacramento Mountains,1890,237200,-104.66667,32.91667,Found,0
Muonionalusta,1906,230000,23.1,67.8,Found,0
New Concord,1860,230000,-81.76667,40,Fell,0
Homestead,1875,230000,-91.86667,41.8,Fell,0
Alfianello,1883,228000,10.15,45.26667,Fell,0
Bear Creek,1866,227000,-105.3,39.6,Found,0
Guixi,,220000,117.18333,28.28333,Found,0
Holbrook,1912,220000,-110.18333,34.9,Fell,0
AcuÌ±a,1981,217700,-100.96667,29.31667,Found,0
Ssyromolotovo,1873,217000,98.93333,58.61667,Found,0
Chinga,1913,209400,94.4,51.05833,Found,0
Barratta,1845,200000,144.56667,-35.3,Found,0
Patos de Minas (octahedrite),1925,200000,-46.53333,-18.58333,Found,0
Dimmitt,1942,200000,-102.16667,34.58333,Found,0
Liangcheng,1959,200000,112.5,40.5,Found,0
JaH 055,2004,200000,55.69,19.65167,Found,0
Porto Alegre,2005,200000,-51.23,-30.03306,Found,0
Moshesh,,200000,28.71667,-30.1,Found,0
Lowell,1846,200000,-71.35,42.68333,Fell,0
Saratov,1918,200000,46.55,52.55,Fell,0
Kainsaz,1937,200000,53.25,55.43333,Fell,0
Kunashak,1949,200000,61.36667,55.78333,Fell,0
Pallasovka,1990,198000,46.61167,49.86667,Found,0
Kenton County,1889,194000,-84.6,38.81667,Found,0
Owens Valley,1913,192800,-118,37.46667,Found,0
Guanghua,1932,190000,111.7,32.4,Found,0
Admire,1881,180000,-96.1,38.7,Found,0
Travis County (a),1889,175400,-97.7,30.3,Found,0
Iron Creek,1869,175000,-112,53,Found,0
Tanokami Mountain,1885,174000,135.96667,34.91667,Found,0
Tamir-Tsetserleg,1956,173000,101.47917,47.45,Found,0
Owasco,1984,168400,-103.68333,41.2,Found,0
Madoc,1854,168000,-77.46667,44.5,Found,0
Manlai,1954,166800,106.5,44.33333,Found,0
Djati-Pengilon,1884,166000,111.5,-7.5,Fell,0
SÌ£o JuliÌ£o de Moreira,1883,162000,-8.58361,41.76611,Found,0
Knowles,1903,161000,-100.21667,36.9,Found,0
Garabato,1995,160000,-60.2,-28.86667,Found,0
Qijiaojing,2003,160000,92.91667,43.75,Found,0
Tenham,1879,160000,142.95,-25.73333,Fell,0
Mount Vernon,1868,159000,-87.4,36.93333,Found,0
Longchang,1781,158500,105.3,29.3,Found,0
Kimble County,1918,153800,-99.4,30.41667,Found,0
Bluff (a),1878,153300,-96.87222,29.87861,Found,0
Forest City,1890,152000,-93.66667,43.25,Fell,0
Glasatovo,1918,152000,37.61667,57.35,Fell,0
Magura,1840,150000,19.48333,49.33333,Found,0
McKinney,1870,150000,-96.71667,33.18333,Found,0
Tres Castillos,1992,150000,-105.8,29.47,Found,0
Jalu,2000,150000,21.68333,27.95833,Found,0
Shirokovsky,2002,150000,57.95,58.8,Found,0
Weston,1807,150000,-73.266667,41.266667,Fell,0
Olivenza,1924,150000,-7.06667,38.71667,Fell,0
Wiluna,1967,150000,120.32833,-26.59278,Fell,0
Mbale,1992,150000,34.16667,1.06667,Fell,0
MontferrÌ©,1923,149000,1.9625,43.39056,Fell,0
Orange River (iron),1855,148800,25,-30,Found,0
Glorieta Mountain,1884,148000,-105.8,35.6,Found,0
Camp Wood,,148000,-99.875,29.7725,Found,0
Gilgoin,1889,147000,147.2,-30.38333,Found,0
Wichita County,1836,145000,-98.91667,34.06667,Found,0
Molina,1858,144000,-1.16667,38.11667,Fell,0
Keyes,1939,142000,-102.5,36.71667,Found,0
El Sampal,1973,142000,-70.36667,-44.53333,Found,0
Tambo Quemado,1950,141000,-74.5,-14.66667,Found,0
Selma,1906,140600,-87,32.4,Found,0
Huizopa,1907,140000,-108.56667,28.9,Found,0
Ider,1957,140000,-85.65,34.68333,Found,0
Korra Korrabes,1996,140000,18.08333,-25.2,Found,0
Brainard,1978,138300,-96.955,41.15333,Found,0
DRPA78009,1978,138100,156.38333,-80.06667,Found,0
Cape of Good Hope,1793,136000,26,-33.5,Found,0
Babb's Mill (Blake's Iron),1876,136000,-82.88333,36.3,Found,0
Kesen,1850,135000,141.61667,38.98333,Fell,0
Colomera,1912,134000,-3.65,37.43333,Found,0
Carnegie,1963,132700,-98.64389,35.16667,Found,0
Araslanovo,1973,132000,48.2,55.14167,Found,0
Karavannoe,,132000,47.67967,57.78117,Found,0
Dong Ujimqin Qi,1995,128800,119.03333,45.5,Fell,0
Chebankol,1938,127760,88,53.66667,Found,0
Ozona,1929,127500,-101.3,30.73333,Found,0
Carthage,1840,127000,-85.98333,36.26667,Found,0
Keqi,1966,127000,117.5,42.73333,Found,0
Ensisheim,1492,127000,7.35,47.86667,Fell,0
Dho 005,2000,125500,54.16667,18.16667,Found,0
JaH 091,2002,123374,56.65432,19.69362,Found,0
Bur-Gheluai,1919,120000,48,5,Fell,0
Santiago Papasquiero,1958,119500,-106,24.5,Found,0
Duketon,1948,118300,122.36667,-27.5,Found,0
Bencubbin,1930,118000,117.78333,-30.75,Found,0
Scurry,1937,118000,-101,32.5,Found,0
Para de Minas,1934,116300,-44.61667,-19.86667,Found,0
Cleveland,1860,115000,-84.78333,34.88333,Found,0
Tafassasset,2000,114000,10.44167,20.76333,Found,0
Caperr,1869,113900,-70.48333,-45.28333,Found,0
Buenaventura,1969,113600,-107.55,29.8,Found,0
Gundaring,1937,112500,117.66667,-33.3,Found,0
Oakley (iron),1926,111000,-113.7,42.33333,Found,0
Florey,1978,110800,-102.705,32.5225,Found,0
Etosha,1970,110700,16,-18.5,Found,0
LEW 85320,1985,110224,161.41628,-84.26223,Found,0
Mount Tazerzait,1991,110000,4.8,18.7,Fell,0
Sulagiri,2008,110000,78.03333,12.66667,Fell,0
Lenarto,1814,108500,21,49,Found,0
Tiberrhamine,1967,107000,0.53333,28.11667,Found,0
Elbogen,1400,107000,12.73333,50.18333,Fell,0
Abee,1952,107000,-113,54.21667,Fell,0
Faith,1952,105000,-102.08333,45.33333,Found,0
Cook 001,1989,105000,130.53333,-30.33333,Found,0
Chico,1954,104800,-104.2,36.5,Found,0
Juncal,1866,104000,-69.25,-26,Found,0
Molong,1912,104000,148.88333,-33.28333,Found,0
Colby (Wisconsin),1917,104000,-90.28333,44.9,Fell,0
Udei Station,1927,103000,8.08333,7.95,Fell,0
Rifle,1948,102700,-107.83333,38.51667,Found,0
Seelï¿½_sgen,1847,102000,15.55,52.26667,Found,0
Sevrukovo,1874,101000,36.6,50.61667,Fell,0
Lutschaunig's Stone,1861,100000,-70,-27,Found,0
Pierceville (iron),1917,100000,-100.66667,37.86667,Found,0
Dimitrovgrad,1949,100000,22.86389,43.04639,Found,0
Budulan,1962,100000,114.9,50.56667,Found,0
Faucett,1966,100000,-94.86667,39.61667,Found,0
Retuerta del Bullaque,1980,100000,-4.3775,39.45889,Found,0
Anyujskij,1981,100000,164.2,66.9,Found,0
Cook 007,1989,100000,130.41667,-30.61667,Found,0
Franconia,2002,100000,-114.22197,34.71637,Found,0
Bou Azarif,2010,100000,-5.15262,31.15643,Found,0
Paranaiba,1956,100000,-51.66667,-19.13333,Fell,0
Murchison,1969,100000,145.2,-36.61667,Fell,0
Kidairat,1983,100000,28,14,Fell,0
Gujba,1984,100000,11.65833,11.49167,Fell,0
Juancheng,1997,100000,115.41667,35.5,Fell,0
Chergach,2007,100000,-5.01472,23.69639,Fell,0
Tamdakht,2008,100000,-7.015,31.16333,Fell,0
Social Circle,1927,99300,-83.7,33.7,Found,0
Steinbach,1724,98000,12.5,50.5,Found,0
Palmas de Monte Alto,1954,97000,-43.02278,-14.3675,Found,0
DaG 749,1999,95000,15.7645,27.30167,Found,0
Loreto,1896,94800,-111.36667,26.01667,Found,0
Weekeroo Station,1924,94200,139.86667,-32.26667,Found,0
Carver,1935,94000,-86,32,Found,0
Concho,1939,93500,-101.5,32,Found,0
Machinga,1981,93200,35.24222,-15.21222,Fell,0
Watson 001,1972,93000,131.55,-30.5,Found,0
Wiltshire,,92750,-1.81,51.14967,Found,0
JaH 090,2002,92668,56.6062,19.71678,Found,0
Karee Kloof,1914,92100,25.8,-31.6,Found,0
Laguna Manantiales,1945,92000,-67.41667,-48.58333,Found,0
Fair Play,1928,91000,-93.55,37.66667,Found,0
Juvinas,1821,91000,4.3,44.71667,Fell,0
ad-Dahbubah,1961,90000,51.25,19.83333,Found,0
Richardton,1918,90000,-102.31667,46.88333,Fell,0
Mincy,1857,89400,-93.1,36.55,Found,0
Farmington,1890,89400,-97.03333,39.75,Fell,0
Bennett County,1934,89000,-101.25,43.5,Found,0
San Angelo,1897,88000,-100.35,31.41667,Found,0
Mills,1970,88000,-104.11889,36.23,Found,0
Wagon Mound,1932,87500,-104.58583,35.84083,Found,0
Roebourne,1892,86860,118,-22.33333,Found,0
Tulia (a),1917,86000,-101.95,34.61667,Found,0
Bath Furnace,1902,86000,-83.75,38.25,Fell,0
Apoala,1889,85000,-97,17.7,Found,0
Juanita de Angeles,1992,85000,-105.08333,28.41667,Found,0
Kayakent,1961,85000,31.78,39.26333,Fell,0
Gan Gan,1984,83000,-68.08333,-42.66667,Found,0
Bruceville,1998,83000,-121.405,38.295,Found,0
Ness County (1894),1894,82000,-99.6,38.5,Found,0
Gretna,1912,82000,-99.21667,39.93333,Found,0
Renfrow,1986,81600,-97.555,36.98667,Found,0
Carlton,1887,81200,-98.03333,31.91667,Found,0
Ainsworth,1907,80650,-99.8,42.6,Found,0
Unter-Mï¿½_ssing,1920,80000,11.33333,49.09028,Found,0
Vera,1941,80000,-60.28333,-29.91667,Found,0
Baygorria,1994,80000,-56,-33,Found,0
Kernouve,1869,80000,-3.08333,48.11667,Fell,0
Soko-Banja,1877,80000,21.86667,43.66667,Fell,0
Mrirt,1937,79900,-5.56667,33.13333,Found,0
Belle Plaine,1950,78800,-97.25,37.31667,Found,0
Finmarken,1902,78300,24,70,Found,0
Parnallee,1857,77600,78.35,9.23333,Fell,0
Moorumbunna,1943,77000,136.25,-28.91667,Found,0
JaH 230,2005,77000,56.58277,19.7127,Found,0
Augusta County,1858,76000,-79.08333,38.16667,Found,0
Northbranch,1972,76000,-98.34167,39.99167,Found,0
Tawallah Valley,1939,75750,135.66667,-15.7,Found,0
Xingyang,1977,75500,114.31667,32.33333,Fell,0
Acme,1947,75000,-104.26667,33.63333,Found,0
Bayard,1982,75000,-103.36667,41.81667,Found,0
Wolsey,1981,74830,-98.53333,44.4,Found,0
Walker County,1832,74800,-87.16667,34,Found,0
Tilden,1927,74800,-89.68333,38.2,Fell,0
Hunter,1962,74600,-97.66667,36.56,Found,0
Ethiudna,1977,74318,139.78333,-32.03333,Found,0
Toufassour,2007,73300,-7.7493,29.65225,Found,0
Nelson County,1856,73030,-85.5,37.75,Found,0
Uwharrie,1930,72700,-79.96667,35.51667,Found,0
UruaÌ¤u,1992,72500,-48.76667,-14.53333,Found,0
Isoulane-n-Amahar,1945,72000,8.66722,27.12917,Found,0
Mafuta,1984,71500,30.40722,-16.9025,Found,0
Merua,1920,71400,81.98333,25.48333,Fell,0
Portales Valley,1998,71400,-103.295,34.175,Fell,0
Sierra Colorada,1995,71300,-67.48333,-40.8,Found,0
Tlacotepec,1903,71000,-97.55,18.65,Found,0
Wooramel,1969,71000,114.21667,-25.65,Found,0
Smithville,1840,70500,-85.85,35.98333,Found,0
Mahadevpur,2007,70500,95.78333,27.66667,Fell,0
Lahmada 009,1999,70000,-9.5,27.16667,Found,0
PeÌ±a Blanca Spring,1946,70000,-103.11667,30.125,Fell,0
Smithonia,1940,69900,-83.16667,34,Found,0
Landes,1930,69800,-79.18333,38.9,Found,0
Xinyi,1975,69000,118.33333,34.36667,Found,0
Wu-chu-mu-ch'in,1920,68860,118,45.5,Found,0
Kheri Maham,1986,68500,76.32278,28.97083,Fell,0
Burlington,1819,68000,-75.18333,42.75,Found,0
Marlow,1936,68000,-97.91667,34.6,Found,0
Hamilton (Queensland),1966,68000,148.25,-28.48333,Found,0
Soledade,1986,68000,-51.43333,-29.05,Found,0
Springwater,1931,67600,-108.3,52,Found,0
Rahimyar Khan,1983,67225,70.2,28.225,Fell,0
Pervomaisky,1933,66000,39.43333,56.63333,Fell,0
Timochin,1807,65500,35.2,54.5,Fell,0
Sychevka,1988,65000,127.495,51.125,Found,0
Bocaiuva,1965,64000,-43.83333,-17.16667,Found,0
Signal Mountain,1919,63500,-115.5,32.5,Found,0
Santa Clara,1976,63000,-103.35,24.46667,Found,0
DRP 88017,1988,63000,156.38333,-80.06667,Found,0
Treysa,1916,63000,9.18333,50.91667,Fell,0
Tnz 072,2002,62285,0.103,24.43817,Found,0
Thunda,1881,62100,143.05,-25.7,Found,0
Covert,1896,61000,-98.78333,39.2,Found,0
Gold Basin,1995,61000,-114.23333,35.875,Found,0
Hex River Mountains,1882,60000,19.61667,-33.31667,Found,0
Savannah,1923,60000,-88.18333,35.16667,Found,0
Nicolï¿½ï¿½s Levalle,1956,60000,-62.87889,-38.85028,Found,0
DRPA78008,1978,59400,156.38333,-80.06667,Found,0
Bohumilitz,1829,59000,13.76667,49.05,Found,0
Piedade do Bagre,1922,59000,-44.98333,-18.94167,Found,0
Quijingue,1984,59000,-39.21667,-10.75,Found,0
ï¿½ï¿½owicz,1935,59000,19.91667,52,Fell,0
Guadalupe y Calvo,1971,58630,-106.96667,26.1,Found,0
Aliskerovo,1977,58400,167.5,67.88333,Found,0
Ivanpah,1880,58000,-115.31667,35.33333,Found,0
Julesburg,1983,57900,-102.26667,39.975,Found,0
Phillips County (stone),1901,57900,-99.25,40,Fell,0
Miami,1930,57700,-100.6,35.66667,Found,0
Gladstone (stone),1936,57300,-104,36.3,Found,0
Warburton Range,1963,56930,126.66667,-26.28333,Found,0
Farmville,1934,56000,-77.53333,35.55,Fell,0
Jenkins,1946,55400,-93.76111,36.82444,Found,0
Ashmore,1969,55400,-102.28333,32.9,Found,0
Kulnine,1886,55300,141.78333,-34.15,Found,0
Wellman (a),1940,55000,-102.33333,33.03333,Found,0
Rosebud,1915,54900,-97.05,30.81667,Found,0
Elenovka,1951,54640,37.66667,47.83333,Fell,0
Aprel'sky,1969,54600,126.11667,53.3,Found,0
Markovka,1967,54200,79.8,52.4,Found,0
Uwet,1903,54000,8.25,5.28333,Found,0
Chihuahua City,1929,54000,-106.11667,28.66667,Found,0
Dunganville,1976,54000,171.35,-42.55,Found,0
Veramin,1880,54000,51.63333,35.33333,Fell,0
Kumerina,1937,53500,119.41667,-24.91667,Found,0
Ruff's Mountain,1844,53070,-81.4,34.3,Found,0
Dalton,1879,53000,-84.98333,34.8,Found,0
Nan Yang Pao,1917,52900,103.5,35.66667,Fell,0
Ahumada,1909,52600,-105.5,30.7,Found,0
Stannern,1808,52000,15.56667,49.28333,Fell,0
Benjamin,1969,51800,-99.8,33.58333,Found,0
Ilimaes (iron),1870,51700,-70,-26,Found,0
Grand Rapids,1883,51700,-85.76667,42.96667,Found,0
LancÌ©,1872,51700,1.06667,47.7,Fell,0
Leedey,1943,51500,-99.33333,35.88333,Fell,0
Mungindi,1897,51300,148.95,-28.93333,Found,0
Willow Creek,1914,51000,-106.76667,43.46667,Found,0
La Grange,1860,50800,-85.36667,38.4,Found,0
Birgi,1332,50800,28.1,38.23333,Fell,0
Davy (a),1940,50600,-97.6,29.1,Found,0
Richland,1951,50600,-96.4,31.9,Found,0
Santa Vitoria do Palmar,2003,50400,-53.41083,-33.50944,Found,0
NWA 1581,2001,50200,-4.25,31.38333,Found,0
Waconda,1873,50000,-98.16667,39.33333,Found,0
Winburg,1881,50000,27,-28.5,Found,0
Hinojal,1927,50000,-60.15,-32.36667,Found,0
Ingella Station,1987,50000,142.78333,-25.55,Found,0
HaH 153,1995,50000,13.5775,28.60033,Found,0
NWA 6903,2008,50000,-6.36,32.37167,Found,0
Dho 1654,2011,50000,54.2876,18.67877,Found,0
Limerick,1813,50000,-8.78333,52.56667,Fell,0
Ausson,1858,50000,0.58333,43.08333,Fell,0
Aumale,1865,50000,3.66667,36.16667,Fell,0
Krymka,1946,50000,30.76667,47.83333,Fell,0
Valera,1972,50000,-70.62833,9.31667,Fell,0
Nuevo Mercurio,1978,50000,-102.13333,24.3,Fell,0
Akyumak,1981,50000,42.81667,39.91667,Fell,0
Wuan,1986,50000,114.25,36.75,Fell,0
JaH 342,2006,49750,56.54755,19.71458,Found,0
Agua Blanca,1938,49000,-66.95,-28.91667,Found,0
Mapleton,1939,49000,-95.71667,42.18333,Found,0
Hraschina,1751,49000,16.33333,46.1,Fell,0
Thule,1955,48600,-67.55,76.53333,Found,0
Crab Orchard,1887,48500,-84.91667,35.83333,Found,0
Bear Lodge,1931,48500,-104.2,44.5,Found,0
Cabin Creek,1886,48500,-93.5,35.5,Fell,0
Bischtï¿½_be,1888,48250,62.2,51.95,Found,0
Woodbine,1953,48200,-90.1675,42.34667,Found,0
Bagnone,1904,48000,9.98333,44.31667,Found,0
Sukhoj Liman,1987,48000,30.8,46.4,Found,0
Jackalsfontein,1903,48000,21.9,-32.5,Fell,0
Dresden (Ontario),1939,47700,-82.26,42.52,Fell,0
Red Rock,1976,47600,-117.91667,35.41667,Found,0
Roy (1933),1933,47200,-104.2,35.95,Found,0
Gomez,1974,47000,-102.40139,33.18139,Found,0
Rancho de la Pila (1882),1882,46500,-104.3,24.11667,Found,0
Harrisonville,1933,46500,-94.33333,38.65,Found,0
Cuero,1936,46500,-97.28333,29.01667,Found,0
Lakewood,1955,46500,-104.35,32.62972,Found,0
Osseo,1931,46300,-80.08333,47.63333,Found,0
JaH 203,2002,46200,56.41368,19.983,Found,0
Dumas (a),1956,46050,-101.9,35.9,Found,0
Linwood,1940,46000,-96.96667,41.43333,Found,0
A-87251,1987,46000,26,-72,Found,0
Peace River,1963,45760,-117.93333,56.13333,Fell,0
Woodward County,1923,45500,-99.5,36.5,Found,0
Needles,1962,45300,-114.8325,34.44417,Found,0
Thuathe,2002,45300,27.58333,-29.33333,Fell,0
Sandia Mountains,1925,45000,-106.5,35.25,Found,0
Wellman (c),1964,45000,-102.33333,33.03333,Found,0
Vyatka,1991,45000,49,57.53333,Found,0
HaH 173,1996,45000,13.1965,28.63667,Found,0
Kyushu,1886,45000,130.63333,32.03333,Fell,0
Marjalahti,1902,45000,30.5,61.5,Fell,0
Kuttippuram,1914,45000,76.03333,10.83333,Fell,0
Dhajala,1976,45000,71.42722,22.37778,Fell,0
La Criolla,1985,45000,-58.16667,-31.23333,Fell,0
Bensour,2002,45000,-7,30,Fell,0
Dho 1433,2006,44790,54.1,18.43333,Found,0
Saginaw,1979,44500,-97.32306,32.86583,Found,0
Beenham,1937,44400,-103.65,36.21667,Found,0
Kelly,1937,44300,-103.03333,40.46667,Found,0
Rodeo,1852,44000,-104.66667,25.33333,Found,0
Dix,1927,44000,-103.48333,41.23333,Found,0
Ust-Nyukzha,1992,44000,120.46667,56.38333,Found,0
DaG 610,1998,44000,16.73333,26.85,Found,0
Horh Uul,2001,44000,104.16667,43.25,Found,0
Barwell,1965,44000,-1.33972,52.56528,Fell,0
Seminole,1961,43900,-102.61667,32.68333,Found,0
Dho 1288,2004,43600,54.285,18.27833,Found,0
SaU 270,2003,43508,57.189,20.72918,Found,0
Staunton,1869,43500,-79.05,38.21667,Found,0
Tombigbee River,1859,43000,-88.2,32.23333,Found,0
Chilkoot,1881,43000,-136,59.33333,Found,0
Aggie Creek,1942,43000,-163.16667,64.88333,Found,0
A-881756,1988,43000,26,-72,Found,0
Lixian,2005,43000,111.59833,29.85167,Found,0
Dho 1565,2008,43000,54.21367,18.2735,Found,0
Merceditas,1884,42900,-70.28333,-26.33333,Found,0
Dho 1426,2001,42850,54.70407,19.173,Found,0
Joe Wright Mountain,1884,42600,-91.5,35.76667,Found,0
Ballinoo,1892,42200,115.76667,-27.7,Found,0
Macy,1984,42000,-103.91667,34.21667,Found,0
Point Berliet,2001,42000,9.53783,20.537,Found,0
NWA 055,,42000,-3.03333,32.05,Found,0
Piplia Kalan,1996,42000,73.94167,26.03472,Fell,0
Bonita Springs,1938,41800,-81.75,26.26667,Found,0
Anton,1965,41800,-102.18111,33.7825,Found,0
Karoonda,1930,41730,139.91667,-35.08333,Fell,0
Tieraco Creek,1922,41700,118.33333,-26.33333,Found,0
AH 010,2002,41539,57.0028,19.86785,Found,0
Cacaria,1867,41400,-104.8,24.5,Found,0
Clovis (no. 2),1963,41300,-103.13333,34.3,Found,0
Obernkirchen,1863,41000,9.1,52.26667,Found,0
Butler,1874,41000,-94.36667,38.3,Found,0
Balsas,1974,41000,-46.04117,-7.53133,Found,0
Buzzard Coulee,2008,41000,-109.84817,52.996,Fell,0
Brownfield (1937),1937,40960,-102.18333,33.21667,Found,0
Glenormiston,1925,40800,138.71667,-22.9,Found,0
Millen,1975,40800,-81.87389,32.83528,Found,0
Richfield,1983,40800,-101.68139,37.22222,Found,0
Orlovka,1928,40500,76.75,56,Found,0
Johnstown,1924,40300,-104.9,40.35,Fell,0
Nullarbor 001,1935,40000,132,-31,Found,0
El Simbolar,1938,40000,-64.88333,-30.63333,Found,0
Wynella,1945,40000,148.13333,-28.95,Found,0
Calliham,1958,40000,-98.25,28.41667,Found,0
Jerslev,1976,40000,11.229167,55.608833,Found,0
Dronino,2000,40000,41.42167,54.74667,Found,0
Pavlograd,1826,40000,35.98333,48.53333,Fell,0
Uberaba,1903,40000,-48.78333,-19.81667,Fell,0
Olmedilla de Alarcï¿½_n,1929,40000,-2.1,39.56667,Fell,0
Sivas,1989,40000,36.13583,39.82467,Fell,0
Lohawat,1994,40000,72.62667,26.96556,Fell,0
Pinnaroo,1927,39400,140.91667,-35.38333,Found,0
Shingle Springs,1869,39000,-120.93333,38.66667,Found,0
Manitouwabing,1962,39000,-79.87556,45.44,Found,0
Bechar 001,1998,39000,-3.33333,30.83333,Found,0
Dho 1700,2010,39000,54.67967,18.86622,Found,0
Braunau,1847,39000,16.3,50.6,Fell,0
GuareÌ±a,1892,39000,-6.01667,38.73333,Fell,0
Weaver Mountains,1898,38800,-112.75,34.25,Found,0
Bunjil,1971,38750,116.48222,-29.62917,Found,0
Lamont,1940,38690,-96.02639,38.07778,Found,0
Mayfield,1972,38400,-97.545,37.30833,Found,0
Bellsbank,1955,38000,24.08333,-28.08333,Found,0
Capot Rey,2004,38000,10.2056,20.12593,Found,0
Avoca (Western Australia),1966,37850,122.31667,-30.85,Found,0
Wonyulgunna,1937,37800,120.06667,-24.91667,Found,0
Albin (pallasite),1915,37600,-104.1,41.5,Found,0
Alatage,1959,37500,93,42.33333,Found,0
N'Goureyma,1900,37500,-4.38333,13.85,Fell,0
Patwar,1935,37350,91.18333,23.15,Fell,0
Densmore (1879),1879,37200,-99.68333,39.65,Found,0
Waterville,1917,37125,-119.876389,47.767778,Found,0
Dho 1289,2004,37000,54.42167,18.63333,Found,0
L'Aigle,1803,37000,0.63333,48.76667,Fell,0
Songyuan,1993,36900,125,45.25,Fell,0
Melrose (a),1933,36400,-103.61667,34.38333,Found,0
Eagle Station,1880,36000,-84.96667,38.61667,Found,0
San Emigdio,1887,36000,-119,36,Found,0
Kansas City (1903),1903,36000,-94.63333,39.1,Found,0
Haskell,1909,36000,-99.73167,33.21333,Found,0
Woolgorong,1960,36000,115.83333,-27.75,Fell,0
El Burro,1939,35900,-101.83333,29.33333,Found,0
Coffeyville,2006,35900,-95.66667,37.01667,Found,0
Costilla Peak,1881,35500,-105.23333,36.83333,Found,0
Lueders,1973,35400,-99.60417,32.83611,Found,0
NWA 6203,2008,35400,-4.3,30.51667,Found,0
Ladder Creek,1937,35100,-101.63333,38.61667,Found,0
Modoc (1905),1905,35000,-101.1,38.5,Fell,0
Rowena,1962,34700,148.63333,-29.8,Found,0
Gursum,1981,34650,42.41667,9.36667,Fell,0
Guin,1969,34500,-87.91667,33.96667,Found,0
Vermillion,1991,34360,-96.36133,39.73633,Found,0
Plains,1964,34300,-102.76667,33.28333,Found,0
BM 003,2005,34200,-114.21717,34.7345,Found,0
Broken Hill,1994,34000,141.76667,-31.83333,Found,0
Cangas de Onis,1866,34000,-5.15,43.38333,Fell,0
Stï¿½_lldalen,1876,34000,14.95,59.93333,Fell,0
Jelica,1889,34000,20.44167,43.83333,Fell,0
View Hill,1952,33600,172.06333,-43.32,Found,0
Gnowangerup,1976,33600,118.1,-34,Found,0
Valencia,,33500,-0.03333,39,Found,0
Bella Roca,1888,33000,-105.4,24.9,Found,0
JaH 406,2006,33000,56.87225,19.53268,Found,0
Putnam County,1839,32700,-83.25,33.25,Found,0
Kyancutta,1932,32700,136,-33.28333,Found,0
Jumapalo,1984,32490,111.2,-7.71667,Fell,0
Mossgiel,1967,32383,144.78333,-33.31667,Found,0
Narraburra,1855,32200,147.7,-34.25,Found,0
Hermitage Plains,1909,32000,146.4,-31.73333,Found,0
Patos de Minas (hexahedrite),1925,32000,-46.53333,-18.58333,Found,0
Dhurmsala,1860,32000,76.46667,32.23333,Fell,0
Allegan,1899,32000,-85.88333,42.53333,Fell,0
DRPA78011,1978,31800,156.38333,-80.06667,Found,0
Thiel Mountains,1962,31700,-90,-85.45,Found,0
Carraweena,1914,31600,139.93333,-29.23333,Found,0
Ioka,1931,31500,-110.08333,40.25,Found,0
Chantonnay,1812,31500,1.05,46.68333,Fell,0
Arriba,1936,31100,-103.25,39.3,Found,0
Saline,1901,30800,-100.4,39.4,Found,0
Puente del Zacate,1904,30790,-101.5,27.86667,Found,0
LoV 002,2010,30750,-69.76667,-24.68333,Found,0
Cha 002,2003,30616,0.82213,25.15592,Found,0
Bledsoe,1970,30500,-103.02667,33.59167,Found,0
HaH 328,1999,30440,10.59167,28.95833,Found,0
El Perdido,1905,30250,-61.1,-38.68333,Found,0
Otchinjau,1919,30000,14,-16.5,Found,0
La Lande,1933,30000,-104.13333,34.45,Found,0
Leon,1943,30000,-96.76667,37.66667,Found,0
Harriman (Of),1947,30000,-84.56667,35.95,Found,0
Muenatauray,1960,30000,-61.2,4.9,Found,0
Daraj 001,1986,30000,11.73222,29.6425,Found,0
Hagersville,1999,30000,-80.15,42.96667,Found,0
Acfer 329,2001,30000,4.1,27.58333,Found,0
Tnz 065,2002,30000,0.13639,25.4075,Found,0
Windimurra,2004,30000,118.45561,-28.09697,Found,0
Agen,1814,30000,0.61667,44.21667,Fell,0
ChÌ¢teau-Renard,1841,30000,2.91667,47.93333,Fell,0
Tuxtuac,1975,30000,-103.36667,21.66667,Fell,0
Jerome (Kansas),1894,29600,-100.73333,38.76667,Found,0
Bassikounou,2006,29560,-5.9,15.78333,Fell,0
LoV 004,2011,29300,-69.76667,-24.68333,Found,0
GRA 98186,1998,29000,-141.5,-86.71667,Found,0
Hatford,1628,29000,-1.51667,51.65,Fell,0
Butsura,1861,29000,84.08333,27.08333,Fell,0
Elga,1959,28800,141.2,64.7,Found,0
Fairview,1986,28800,-102.65,34.10139,Found,0
RaS 418,2010,28791,56.22002,20.3936,Found,0
Great Bend,1983,28770,-98.91583,38.395,Found,0
Cumpas,1903,28600,-109.66667,30,Found,0
Sinawan 001,1991,28600,11.66667,31,Found,0
Ocotillo,1990,28570,-116.06667,32.83333,Found,0
Negrillos,1936,28500,-69.83333,-19.88333,Found,0
Tennasilm,1872,28500,26.95,58.03333,Fell,0
Marion (Iowa),1847,28400,-91.6,41.9,Fell,0
Larned,1977,28100,-99.162,38.1995,Found,0
Walters,1946,28100,-98.3,34.33333,Fell,0
Deelfontein,1932,28000,23.26667,-30.18333,Found,0
Bunker Hill,2002,28000,-98.72383,38.84833,Found,0
Tieschitz,1878,28000,17.11667,49.6,Fell,0
Monahans (1938),1938,27900,-102.88333,31.48333,Found,0
Changxing,1964,27900,121.66667,31.33333,Found,0
SaU 278,2002,27861,57.17887,21.26172,Found,0
Kerulensky,1950,27780,115.16667,48.25,Found,0
Oakley (stone),1895,27700,-101.01667,38.95,Found,0
Delegate,1904,27700,149.03333,-37,Found,0
Weldona,1934,27700,-103.95,40.35,Found,0
El Capitan,1893,27500,-105.5,33.5,Found,0
CratheÌ¼s (1931),1914,27500,-40.5,-5.25,Found,0
Dumont,1994,27420,-100.51667,33.81667,Found,0
La Primitiva,1888,27400,-69.81667,-19.91667,Found,0
Dadin,1949,27300,-69.2,-38.91667,Found,0
HaH 296,2000,27064,12.31667,29.1,Found,0
Provence,1627,27000,6,43.5,Found,0
Tazewell,1853,27000,-83.75,36.43333,Found,0
Bendock,1898,27000,148.91667,-37.15,Found,0
Ashfork,1901,27000,-112.5,35.25,Found,0
Hammond Downs,1950,27000,142.8,-25.46667,Found,0
Gobabeb,1969,27000,15.03333,-23.55,Found,0
Naryilco,1975,27000,141.15,-28.6,Found,0
NWA 059,,27000,-2.93333,31.83333,Found,0
Charsonville,1810,27000,1.56667,47.93333,Fell,0
Indarch,1891,27000,46.66667,39.75,Fell,0
Tiffa 001,1997,26900,11.933,19.949,Found,0
Seagraves (c),1989,26810,-102.56667,32.98333,Found,0
Kaffir (d),1981,26760,-101.815,34.67167,Found,0
Forestburg (b),1957,26600,-97.58861,33.49556,Found,0
Wilder,1982,26600,-116.91167,43.72444,Found,0
Milly Milly,1921,26500,116.66667,-26.11667,Found,0
HaH 280,2000,26500,12.972,28.47017,Found,0
Dayton,1892,26300,-84.16667,39.75,Found,0
Cavour,1938,26210,-98.059192,44.221494,Found,0
Texline,1937,26200,-103.01667,36.4,Found,0
Forestburg (a),1957,26100,-97.65139,33.50667,Found,0
Denver City,1975,26100,-102.80028,33.07139,Found,0
Ilafegh 008,1989,26100,1.66667,21.6,Found,0
Sierra Gorda,1898,26000,-69.35,-22.9,Found,0
Cedar (Texas),1900,26000,-96.90861,29.82806,Found,0
DRPA78012,1978,26000,156.38333,-80.06667,Found,0
Forrest 002,1980,26000,127.88333,-30.98333,Found,0
Maslyanino,1992,26000,84.33333,54.25,Found,0
Kumtag,2008,26000,93.17306,41.66889,Found,0
Forest Vale,1942,26000,146.85833,-33.35,Fell,0
Seymour,1940,25900,-92.78694,37.2375,Found,0
Lake Labyrinth,1924,25850,134.75,-30.53333,Found,0
Beaver,1940,25628,-100.53333,36.8,Found,0
LoV 003,2011,25450,-69.76667,-24.68333,Found,0
Desuri,1962,25400,73.61667,25.73333,Fell,0
St-Robert,1994,25400,-72.97806,45.96861,Fell,0
Y-791717,1979,25322,35.66667,-71.5,Found,0
Belmont,1958,25300,-90.35,42.73333,Found,0
Juromenha,1968,25250,-7.27,38.74028,Fell,0
GRA 95200,1995,25066,-141.5,-86.71667,Found,0
SaU 266,2002,25014,57.18317,20.70713,Found,0
Four Corners,1924,25000,-109.05,37,Found,0
Taiban,1934,25000,-104.01667,34.45,Found,0
Nashville (stone),1939,25000,-98.41667,37.45,Found,0
Casimiro de Abreu,1947,25000,-42.21667,-22.46667,Found,0
Camel Donga,1984,25000,126.61667,-30.31667,Found,0
Pampa (c),1986,25000,-70.43333,-23.2,Found,0
Dho 379,2000,25000,54.76913,19.0084,Found,0
Dho 1722,2010,25000,54.71472,19.08188,Found,0
Apache Junction,,25000,-111.51667,33.45,Found,0
Wold Cottage,1795,25000,-0.41333,54.13667,Fell,0
Cabezo de Mayo,1870,25000,-1.16667,37.98333,Fell,0
Bursa,1946,25000,29.23333,40.2,Fell,0
Bilanga,1999,25000,-0.08333,12.45,Fell,0
Benguerir,2004,25000,-8.15,32.25,Fell,0
Burgavli,1941,24900,137.46667,66.4,Found,0
Meester-Cornelis,1915,24750,106.88333,-6.23333,Fell,0
Rasgrad,1740,24700,26.53333,43.5,Fell,0
Oroville,1893,24500,-121.63333,39.68333,Found,0
Billings,1903,24500,-93.55,37.06667,Found,0
Salaices,1971,24500,-105.25,27,Found,0
Taoudenni,2007,24370,-3.96667,22.79167,Found,0
Veliko-Nikolaevsky Priisk,1902,24267,97.33333,53.83333,Found,0
Hammond,1884,24000,-92.43333,44.91667,Found,0
Winona,1928,24000,-111.4,35.2,Found,0
Cleo Springs,1960,24000,-98.43333,36.43333,Found,0
Aï¿½ï¿½r,1925,24000,8.38333,19.08333,Fell,0
Galatia,1971,23900,-98.88333,38.64167,Found,0
Campos Sales,1991,23680,-40.16667,-7.03333,Fell,0
Wayside,1973,23600,-101.68333,34.80167,Found,0
Cachari,1916,23500,-59.5,-36.4,Found,0
Perpeti,1935,23474,91,23.325,Fell,0
Waltman,1948,23410,-107.16667,43,Found,0
Lake Brown,1919,23400,118.5,-31,Found,0
Sharon Springs,1983,23400,-101.79833,38.77083,Found,0
Pillistfer,1863,23250,25.73333,58.66667,Fell,0
Nakhon Pathom,1923,23200,100.08333,13.73333,Fell,0
Kaufman,1893,23000,-96.41667,32.58333,Found,0
Norfolk,1907,23000,-76.3,36.9,Found,0
Cruz del Aire,1911,23000,-100,26.5,Found,0
Isna,1970,23000,31.66667,24.83333,Found,0
Fuhe,1945,23000,113.56694,31.47556,Fell,0
Mount Sir Charles,1942,22900,134.03333,-23.83333,Found,0
Wooster,1858,22700,-81.95,40.76667,Found,0
Shirahagi,1890,22700,137.36667,36.7,Found,0
Forsyth County,1891,22700,-80.2,36.1,Found,0
Duchesne,1906,22700,-110.86667,40.38333,Found,0
Gun Creek,1909,22700,-111,34,Found,0
MezÌ¦-Madaras,1852,22700,25.73333,46.5,Fell,0
Adrian,1936,22600,-102.71667,35.15,Found,0
Turtle River,1953,22390,-94.76667,47.6,Found,0
Mangwendi,1934,22300,31.6,-17.65,Fell,0
MaltahÌ¦he,1991,22270,16.98333,-24.91667,Found,0
HaH 087,1995,22114,13.269,28.59583,Found,0
Toubil River,1891,22000,89.1,55.88333,Found,0
Baquedano,1932,22000,-69.88333,-23.3,Found,0
Mount Egerton,1941,22000,117.7,-24.76667,Found,0
Tostado,1945,22000,-61.76667,-29.23333,Found,0
Picacho,1952,22000,-105,33.2,Found,0
Saint Augustine,1974,22000,-90.41667,40.71667,Found,0
EET 92193,1992,22000,155.94038,-76.04222,Found,0
QUE 99001,1999,22000,168,-84,Found,0
Karkh,1905,22000,67.16667,27.8,Fell,0
GualeguaychÌ¼,1932,22000,-58.61667,-33,Fell,0
Friona,1981,21900,-102.56833,34.54,Found,0
Hebron,1965,21820,-97.6,40.16667,Found,0
Duel Hill (1854),1854,21800,-82.7,35.85,Found,0
Kargapole,1961,21800,64.3,55.88333,Found,0
Lahoma,1963,21800,-98.08333,36.38333,Found,0
Schwetz,1850,21500,18.45,53.4,Found,0
Altonah,1932,21500,-110.48333,40.56667,Found,0
JaH 317,2001,21472,55.55723,19.36312,Found,0
Twodot,1999,21400,-110.13333,46.7,Found,0
Flandreau,1983,21360,-96.59167,44.04833,Found,0
Dho 007,1999,21270,54.18167,18.335,Found,0
Abbott,1951,21100,-104.28333,36.3,Found,0
A-881842,1988,21064,26,-72,Found,0
Kendall County,1887,21000,-98.5,29.4,Found,0
Efremovka,1962,21000,77,52.5,Found,0
Bath,1892,21000,-98.31667,45.41667,Fell,0
Tauti,1937,21000,23.5,46.71667,Fell,0
De Hoek,1960,20930,23.1,-29.38333,Found,0
Artracoona,1914,20810,139.91667,-29.06667,Found,0
Twannberg,1984,20689,7.17889,47.12444,Found,0
Lone Tree,1971,20676,-91.47917,41.5,Found,0
META78028,1978,20657,155.75,-79.68333,Found,0
Cerro del Inca,1997,20600,-68.90833,-22.21667,Found,0
Lucky Hill,1885,20500,-77.63333,17.9,Found,0
DaG 741,1998,20500,16.28333,27.08167,Found,0
Jartai,1979,20500,105.8,39.7,Fell,0
Glasgow,1922,20400,-85.91667,37.01667,Found,0
Conquista,1965,20350,-47.55,-19.85,Fell,0
ALHA76001,1976,20151,159.33333,-76.75,Found,0
Koltsovo,2004,20020,36.978,54.7505,Found,0
Lime Creek,1834,20000,-87.51667,31.55,Found,0
Copiapo,1863,20000,-70.4,-27.3,Found,0
Nocoleche,1895,20000,144.21667,-29.86667,Found,0
Reed City,1895,20000,-85.51667,43.86667,Found,0
Anthony,1919,20000,-98.05,37.08333,Found,0
New Baltimore,1922,20000,-78.85,40,Found,0
Taicang,1928,20000,121.08333,31.5,Found,0
Alikatnima,1931,20000,134.11667,-23.33333,Found,0
New Leipzig,1936,20000,-101.95,46.36667,Found,0
Bristol,1937,20000,-82.18333,36.56667,Found,0
SaU 504,2010,20000,56.76667,20.38333,Found,0
VouillÌ©,1831,20000,0.16667,46.63333,Fell,0
Hessle,1869,20000,17.66667,59.85,Fell,0
Tjabe,1869,20000,111.53333,-7.08333,Fell,0
Ergheo,1889,20000,44.16667,1.16667,Fell,0
Uzcudun,1948,20000,-66.15,-44.11667,Fell,0
Seoni,1966,20000,79.50083,21.68389,Fell,0
Ankhediya Mota,1985,20000,73.575,22.35556,Fell,0
Ourique,1998,20000,-8.28,37.60833,Fell,0
Mulga (north),1964,19900,126.36667,-30.18333,Found,0
Tysnes Island,1884,19860,5.61667,60,Fell,0
La Villa,1956,19800,-97.90167,26.27167,Found,0
Horace,1940,19700,-101.78333,38.35,Found,0
Comanche (iron),1940,19700,-98.7,32.01667,Found,0
Twentynine Palms,1944,19700,-116.01667,34.075,Found,0
Two Buttes (a),1962,19700,-102.41667,37.63333,Found,0
Colton,1993,19670,-117.09861,46.57056,Found,0
Pan de Azucar,1887,19500,-69.5,-26.5,Found,0
Los Reyes,1897,19500,-97.28333,19.26667,Found,0
Cocklebiddy,1949,19500,126.21667,-31.93333,Found,0
HaH 001,1990,19418,12.23333,29,Found,0
Farley,1936,19400,-104.05,36.33333,Found,0
Arcadia,1937,19400,-99.1,41.41667,Found,0
Acfer 336,2002,19400,4.06667,27.61667,Found,0
Souslovo,1997,19300,55.78727,55.4295,Found,0
Coolac,1874,19280,148.125,-34.96667,Found,0
New Orleans,2003,19256,-90.10976,29.94718,Fell,0
Norquï¿½_n,1945,19250,-70.61667,-37.71667,Found,0
Arapahoe,1940,19083,-102.2,38.8,Found,0
PGPA77006,1977,19068,162.3,-77.33333,Found,0
A-87034,1987,19065,26,-72,Found,0
Littlerock,1979,19050,-117.98333,34.51667,Found,0
Emsland,1940,19000,7.2,53.1,Found,0
Vulcan,1962,19000,-113.13333,50.51667,Found,0
Big Rock Donga,1970,19000,130.96667,-30.55,Found,0
MET 01005,2001,19000,159.75,-79.68333,Found,0
Mauerkirchen,1768,19000,13.13333,48.18333,Fell,0
Beni M'hira,2001,19000,10.8,32.86667,Fell,0
Kilabo,2002,19000,9.8,12.76667,Fell,0
Susuman,1957,18900,148.13028,62.72139,Found,0
Franceville,1890,18800,-104.61667,38.81667,Found,0
Kifkakhsyagan,1972,18800,172.7,64.4,Found,0
DaG 779,1999,18800,16.4375,26.99233,Found,0
DRPA78005,1978,18600,156.38333,-80.06667,Found,0
Shelburne,1904,18600,-80.16667,44.05,Fell,0
DaG 955,1999,18500,16.20767,27.13183,Found,0
Coldwater (iron),1923,18400,-99.33333,37.26667,Found,0
Polujamki,1971,18350,79.7,52.1,Found,0
Chajari,1933,18300,-58.05,-30.78333,Fell,0
Mud Dry Lake,2002,18255,-117.02097,37.8594,Found,0
RaS 202,2002,18250,56.41628,20.00552,Found,0
Rafrï¿½_ti,1886,18200,7.83333,47,Found,0
Morrow County,1999,18200,-119.5,45.5,Found,0
Y-793235,1979,18126,35.66667,-71.5,Found,0
Arltunga,1908,18100,134.66667,-23.33333,Found,0
Verkhne Udinsk,1854,18000,113.98333,54.76667,Found,0
Nashville (iron),1934,18000,-77.96667,35.96667,Found,0
Point of Rocks (iron),1956,18000,-104.5,36.5,Found,0
Caddo County,1987,18000,-98.33333,35,Found,0
Maria da FÌ©,1987,18000,-45.36667,-22.3,Found,0
PCA 91009,1991,18000,-68.33784,-85.6882,Found,0
Bachmut,1814,18000,38,48.6,Fell,0
Girgenti,1853,18000,13.56667,37.31667,Fell,0
Palinshih,1914,18000,118.61667,43.48333,Fell,0
BÌ©rÌ©ba,1924,18000,-3.65,11.65,Fell,0
Dahmani,1981,18000,8.83333,35.61667,Fell,0
Park Forest,2003,18000,-87.67917,41.48472,Fell,0
Dho 1511,2009,17973,54.248,18.63988,Found,0
Pinto Mountains,1954,17900,-115.78333,34,Found,0
Andura,1939,17900,76.86667,20.88333,Fell,0
PiÌ±on,1928,17850,-105.1,32.66667,Found,0
Duncanville,1961,17800,-96.86667,32.63333,Found,0
ALHA81013,1981,17727,158.84338,-76.74756,Found,0
Tulia (d),1981,17700,-101.76667,34.60667,Found,0
Niederreissen,1581,17700,11.36667,51.06667,Fell,0
Shiï¿½ï¿½r 010,2001,17604,53.97,18.55,Found,0
Hambleton,2005,17600,-1.19889,54.24028,Found,0
Fisher,1894,17600,-96.85,47.81667,Fell,0
Roundup,1990,17590,-108.56667,46.78333,Found,0
Perryville,1906,17500,-89.85,37.73333,Found,0
Shaw,1937,17500,-103.33333,39.53333,Found,0
Sargiin Gobi,1964,17500,105.75883,45.9835,Found,0
Alvord,1976,17500,-96.28889,43.32222,Found,0
Quija,1990,17450,126.13333,44.61667,Fell,0
Springlake,1980,17300,-102.22361,34.34444,Found,0
Reliegos,1947,17300,-5.33333,42.475,Fell,0
El Paso de Aguila,1977,17226,-97.37,25.37,Fell,0
Romero,1938,17200,-102.95,35.76667,Found,0
N'Kandhla,1912,17200,30.7,-28.56667,Fell,0
Sone,1866,17100,135.33333,35.16667,Fell,0
Teplï¿½ï¿½,1909,17000,12.86667,49.98333,Found,0
Brewster,1940,17000,-101.33333,39.25,Found,0
Benthullen,1951,17000,8.1,53.05,Found,0
Klamath Falls,1952,17000,-121.85,42.16667,Found,0
Carichic,1983,17000,-107.05,27.93333,Found,0
Conception Junction,2006,17000,-94.683333,40.266667,Found,0
Mount Vaisi,1637,17000,6.86667,44.08333,Fell,0
St. Michel,1910,17000,27.2,61.65,Fell,0
Cumberland Falls,1919,17000,-84.35,36.83333,Fell,0
Naoki,1928,17000,77,19.25,Fell,0
Lost City,1970,17000,-95.15,36.00833,Fell,0
Oum Dreyga,2003,17000,-13.1,24.3,Fell,0
Lamesa,1981,16900,-101.88333,32.88333,Found,0
Snyder,1983,16900,-100.91667,32.71667,Found,0
JaH 355,2003,16879,55.54843,19.35885,Found,0
Kasauli,2003,16820,77.58333,29.58333,Fell,0
Coopertown,1860,16800,-87,36.43333,Found,0
Emery,1962,16700,-97.58333,43.56333,Found,0
Miller (Arkansas),1930,16700,-92.05,35.4,Fell,0
Ban Rong Du,1993,16700,101.18333,16.66667,Fell,0
Mount Magnet,1916,16600,118.5,-28.16667,Found,0
Tell,1930,16600,-100.4,34.38333,Found,0
Oldenburg (1930),1930,16570,8.16667,52.95,Fell,0
D'Orbigny,1979,16550,-61.65,-37.66667,Found,0
PAT 91500,1991,16541,-64.46576,-85.07424,Found,0
Chesterville,1849,16500,-81.2,34.7,Found,0
Hainholz,1856,16500,8.91667,52.28333,Found,0
Krï¿½_henberg,1869,16500,7.46472,49.32694,Fell,0
Tjerebon,1922,16500,106.58333,-6.66667,Fell,0
Demina,1911,16400,84.76667,51.46667,Fell,0
Benedict,1970,16380,-97.53333,41,Found,0
Cambria,1818,16300,-78.8,43.2,Found,0
Morristown,1887,16300,-83.38333,36.2,Found,0
Happy Canyon,1971,16300,-101.56667,34.80167,Found,0
Cole Creek,1991,16300,-99.11667,41.35,Found,0
Forsyth,1829,16300,-83.96667,33.01667,Fell,0
Ohaba,1857,16250,23.58333,46.06667,Fell,0
RaS 428,,16247,56.32694,20.10361,Found,0
Chulafinnee,1873,16220,-85.66667,33.5,Found,0
SaU 250,2003,16200,57.3165,20.58298,Found,0
DaG 477,1998,16128,16.003,27.74767,Found,0
JaH 267,2005,16006,56.41108,19.9997,Found,0
Skookum,1905,16000,-139.33333,63.91667,Found,0
Bluff (b),1917,16000,-96.92667,29.86306,Found,0
Coldwater (stone),1924,16000,-99.33333,37.26667,Found,0
Achilles,1924,16000,-100.81333,39.77667,Found,0
Dimboola,1944,16000,142.03333,-36.5,Found,0
Hassayampa,1963,16000,-112.66667,33.75,Found,0
ALH 84006,1984,16000,158.77438,-76.76228,Found,0
Isheyevo,2003,16000,56.33333,53.61667,Found,0
JaH 628,2009,16000,55.76756,19.83956,Found,0
Beardsley,1929,16000,-101.2,39.8,Fell,0
Fort Pierre,1856,15900,-100.38333,44.35,Found,0
Kodaikanal,1898,15900,77.4,10.26667,Found,0
Bodaibo,1907,15900,114.2,57.85,Found,0
Tryon,1934,15900,-100.96667,41.55,Found,0
SaU 499,2009,15900,57.26967,20.76467,Found,0
HaH 148,1995,15770,12.86433,28.71967,Found,0
Ashuwairif 004,2008,15750,14.27611,29.36583,Found,0
Ellicott,1960,15700,-104.56944,38.80778,Found,0
Rancho Gomelia,1975,15650,-105.25,24.51667,Found,0
Millarville,1977,15636,-114.30944,50.79722,Found,0
Claytonville,1964,15600,-101.49,34.34667,Found,0
Blanca Estela,2002,15600,-69.5,-25,Found,0
Maria Elena (1935),1935,15500,-69.66667,-22.33333,Found,0
Haxtun,1975,15500,-102.57834,40.45667,Found,0
Baszkï¿½_wka,1994,15500,20.93583,52.03333,Fell,0
Mayodan,1920,15400,-79.86667,36.38333,Found,0
Campbellsville,1929,15400,-85.36667,37.36667,Found,0
Albin (stone),1949,15400,-104.1,41.41667,Found,0
Um-Hadid,,15400,50.59667,21.695,Found,0
ALHA77226,1977,15323,159.66667,-76.71667,Found,0
Channing,1936,15300,-102.28333,35.71667,Found,0
SÌ£o JoÌ£o Nepomuceno,1960,15300,-43.01667,-21.55,Found,0
Tinnie,1978,15300,-105.25,33.38333,Found,0
Dho 360,2000,15300,54.78383,19.04002,Found,0
Eli Elwah,1888,15200,144.71667,-34.5,Found,0
DRPA78001,1978,15200,156.38333,-80.06667,Found,0
Nordheim,1932,15150,-97.61667,28.86667,Found,0
Indio Rico,1887,15000,-60.88333,-38.33333,Found,0
Deport,1926,15000,-95.3,33.51667,Found,0
Ransom,1938,15000,-99.93333,38.61667,Found,0
Tnz 028,1991,15000,0.14028,25.25306,Found,0
DaG 956,1997,15000,15.9925,27.13267,Found,0
Castrovillari,1583,15000,16.2,39.8,Fell,0
Bansur,1892,15000,76.33333,27.7,Fell,0
Vigarano,1910,15000,11.4,44.85,Fell,0
Appley Bridge,1914,15000,-2.71667,53.58333,Fell,0
Dho 224,2001,14974,54.57333,19.15833,Found,0
Dho 1027,2003,14944,54.24553,18.66003,Found,0
DaG 595,1998,14931,15.90133,27.63917,Found,0
Patricia,1983,14900,-102.03333,32.5,Found,0
Indianï¿½_polis,1989,14850,-47.83333,-19.16667,Found,0
Mejillones,1875,14830,-70.5,-23.1,Found,0
Angelica,1916,14800,-88.25,44.25,Found,0
Acfer 379,2004,14764,3.70467,27.4114,Found,0
Ashuwairif 001,2008,14566,14.25528,29.35944,Found,0
La Porte,1900,14540,-86.71667,41.6,Found,0
Huntsman,1910,14500,-103,41.18333,Found,0
Squaw Creek,,14500,-98,32,Found,0
Tourinnes-la-Grosse,1863,14500,4.76667,50.78333,Fell,0
Edmonson (b),1981,14402,-101.83333,34.28333,Found,0
Ogi,1741,14360,130.2,33.28333,Fell,0
Opava,1925,14300,17.9,49.96667,Found,0
Gifu,1909,14290,136.88333,35.53333,Fell,0
ALHA78084,1978,14280,159.66667,-76.71667,Found,0
Ningbo,1975,14250,121.48333,29.86667,Fell,0
Laochenzhen,1987,14250,115.16667,33.13333,Fell,0
Thika,2011,14200,37.15028,-1.00278,Fell,0
Singhur,1847,14180,73.91667,18.31667,Found,0
Indian Valley,1887,14100,-80.5,36.93333,Found,0
Moorabie,1965,14040,141.06667,-30.01667,Found,0
Sarepta,1854,14000,44.81667,48.48333,Found,0
Villedieu,1890,14000,4.35,47.91667,Found,0
Plymouth,1893,14000,-86.31667,41.33333,Found,0
Verissimo,1965,14000,-48.31667,-19.73333,Found,0
Cruz del Eje,1971,14000,-64.78333,-30.75,Found,0
El Bahrain,1983,14000,26.4,28.6,Found,0
Dho 1493,2008,14000,54.45017,18.67378,Found,0
Luponnas,1753,14000,5,46.21667,Fell,0
Orgueil,1864,14000,1.38333,43.88333,Fell,0
Beaver Creek,1893,14000,-117.33333,51.16667,Fell,0
Hvittis,1901,14000,22.68333,61.18333,Fell,0
Saint-Sauveur,1914,14000,1.38333,43.73333,Fell,0
Qulumat Nadqan 001,2008,13901,49.53252,23.14302,Found,0
Neenach,1948,13800,-118.5,34.8,Found,0
Lanton,1932,13780,-91.8,36.53333,Found,0
St. Mark's,1903,13780,27.41667,-32.01667,Fell,0
MBRA76002,1976,13773,160.37361,-77.58389,Found,0
Gaines County Park,1977,13700,-102.73333,32.83333,Found,0
SS 083,2010,13700,-115.85828,35.98728,Found,0
Page City,1980,13630,-101.28333,39.16667,Found,0
Dho 721,2001,13605,54.15333,18.79167,Found,0
Pipe Creek,1887,13600,-98.91667,29.68333,Found,0
Waldron Ridge,1887,13600,-83.83333,36.63333,Found,0
Bridgewater,1890,13600,-81.86667,35.71667,Found,0
Mount Ayliff,1907,13600,29.35,-30.81667,Found,0
Kopjes Vlei,1914,13600,21.15,-29.3,Found,0
Alamogordo,1938,13600,-105.93333,32.9,Found,0
Kielpa,1948,13600,136.1,-33.6,Found,0
Khairpur,1873,13600,72.3,29.53333,Fell,0
Annaheim,1916,13500,-104.86667,52.33333,Found,0
Felsted,1977,13500,9.49194,54.99056,Found,0
Kalahari 009,1999,13500,22.9766,-20.9818,Found,0
HaH 019,1990,13431,12.68333,29.06667,Found,0
Wellington,1955,13400,-100.25,34.95,Found,0
Strathmore,1917,13400,-3.25,56.58333,Fell,0
Kabo,1971,13400,8.21667,11.85,Fell,0
Sueilila,2005,13266,-14.71633,24.63633,Found,0
Russel Gulch,1863,13200,-105.5,39.8,Found,0
Moonbi,1892,13200,151.28333,-30.91667,Found,0
Durala,1815,13200,76.63333,30.3,Fell,0
Gruver,1934,13100,-101.4,36.33333,Found,0
Nazareth (e),1977,13100,-102.05,34.58333,Found,0
Guanaco,2000,13100,-69.53333,-25.1,Found,0
Tuan Tuc,1921,13100,105.66667,9.66667,Fell,0
Lancaster County,1903,13000,-96.75,40.66667,Found,0
Dungannon,1922,13000,-82.45,36.85,Found,0
Bruno,1931,13000,-105.35,52.26667,Found,0
Harriman (Om),1938,13000,-84.56667,35.95,Found,0
Umbarger,1954,13000,-102.1175,34.95,Found,0
Seagraves,1962,13000,-102.58333,32.93333,Found,0
Talpa,1963,13000,-99.58333,31.86667,Found,0
Floyd,1966,13000,-103.575,34.19333,Found,0
Park,1969,13000,-100.36167,39.11,Found,0
Hardtner,1972,13000,-98.66167,37.06667,Found,0
Uruachic,1989,13000,-108.23333,27.85,Found,0
JaH 574,2009,13000,56.29692,19.75377,Found,0
Ryechki,1914,13000,34.5,51.13333,Fell,0
Kingston,1891,12900,-107.73333,32.9,Found,0
Hesston,1951,12900,-97.43333,38.11667,Found,0
Caldwell,1961,12900,-97.625,37.03333,Found,0
Hasparos,1935,12880,-105.5,34,Found,0
Smara,2000,12870,-11.73333,26.68333,Found,0
AH 064,2002,12834,57.27497,19.40412,Found,0
Pampa (d),1986,12800,-70.43333,-23.2,Found,0
RaS 276,2008,12800,56.11768,20.5225,Found,0
Lissa,1808,12800,14.85,50.2,Fell,0
Willard (b),1934,12700,-105.83333,34.5,Found,0
De Nova,1940,12700,-102.95,39.85,Found,0
Divnoe,1981,12700,43.7,45.7,Found,0
O'Donnell,1992,12700,-101.91867,32.91217,Found,0
Shiï¿½ï¿½r 168,2004,12688,53.95117,18.60667,Found,0
Mayerthorpe,1964,12610,-115.03333,53.775,Found,0
Dorofeevka,1910,12600,70.06667,53.33333,Found,0
Murray,1950,12600,-88.1,36.6,Fell,0
Peekskill,1992,12570,-73.91667,41.28333,Fell,0
Iquique,1871,12500,-69.73333,-20.18333,Found,0
Nenntmannsdorf,1872,12500,13.95,50.96667,Found,0
Floydada,1912,12500,-101.28333,33.98333,Found,0
Kress (a),1951,12500,-101.73,34.35833,Found,0
Djebel In-Azzene,1990,12500,0.45,27.86667,Found,0
Dergaon,2001,12500,93.86667,26.68333,Fell,0
Pampa Providencia,1994,12400,-69.57167,-24.45,Found,0
Dho 446,2001,12400,54.68658,18.93805,Found,0
San Borjita,1983,12300,-56.13444,-27.55861,Found,0
Albion,1966,12280,-117.25,46.83333,Found,0
Holland's Store,1887,12200,-85.43333,34.36667,Found,0
Dalgaranga,1923,12200,117.25,-27.71667,Found,0
Colonia Obrera,1973,12200,-104.66667,24.01667,Found,0
JaH 664,2011,12175,55.684,19.82562,Found,0
Ragland,1982,12100,-103.55,34.76778,Found,0
Barranca Blanca,1855,12000,-69.33333,-28.08333,Found,0
Jenny's Creek,1883,12000,-82.38333,37.9,Found,0
Shrewsbury,1907,12000,-76.66667,39.76667,Found,0
Pooposo,1910,12000,-66.83333,-18.33333,Found,0
Cope,1934,12000,-102.83333,39.66667,Found,0
Mission,1949,12000,-100.76667,43.31667,Found,0
Aswan,1955,12000,32.62361,23.98611,Found,0
Edmonson (a),1955,12000,-101.83333,34.28333,Found,0
Kaldoonera Hill,1956,12000,134.85,-32.61667,Found,0
Karasburg,1964,12000,18.96667,-27.66667,Found,0
Boolka,1968,12000,141.06667,-30.06667,Found,0
Starvation Lake,1975,12000,141.08333,-30.46667,Found,0
ALH 84005,1984,12000,156.89321,-76.89102,Found,0
HaH 051,1994,12000,12.99683,28.8435,Found,0
Bechar 002,1998,12000,-3.33333,30.83333,Found,0
GSS 019,1999,12000,25.65778,25.53667,Found,0
Charwallas,1834,12000,75.5,29.48333,Fell,0
Okniny,1834,12000,25.5,50.83333,Fell,0
Tatahouine,1931,12000,10.41667,32.95,Fell,0
New Halfa,1994,12000,35.68333,15.36667,Fell,0
Devgaon,2001,12000,81,19,Fell,0
Ashuwairif 002,2008,11953,14.26972,29.37972,Found,0
Acfer 353,2001,11935,3.89,27.48917,Found,0
EET 87538,1987,11894,157.16667,-76.18333,Found,0
Waka,1963,11875,-101.05,36.15,Found,0
Safsaf,1998,11870,-4.66667,30.26667,Found,0
Tonganoxie,1886,11800,-95.11667,39.08333,Found,0
Somervell County,1919,11800,-97.8,32.18333,Found,0
Vaalbult,1921,11800,22.5,-29.75,Found,0
DRPA78007,1978,11800,156.38333,-80.06667,Found,0
Ragland Hill,1980,11800,-103.66667,34.78333,Found,0
McKenzie Draw (a),1989,11800,-102.625,32.925,Found,0
Trenzano,1856,11800,10,45.46667,Fell,0
Hill City,1947,11700,-99.85,39.36667,Found,0
Little River (b),1965,11700,-98.06667,38.44,Found,0
Willow Grove,1995,11700,146.18111,-38.10306,Found,0
SaU 277,2002,11643,57.07545,20.16658,Found,0
Beeler,1924,11620,-100.21667,38.53333,Found,0
Fukutomi,1882,11620,130.2,33.18333,Fell,0
Silver Crown,1887,11600,-104.98333,41.23333,Found,0
Kokubunji,1986,11510,133.95,34.3,Fell,0
Deep Springs,1846,11500,-79.75,36.5,Found,0
Seneca Township,1923,11500,-84.18333,41.78333,Found,0
Peetz,1937,11500,-103.08333,40.95,Found,0
Bandong,1871,11500,107.6,-6.91667,Fell,0
LEW 85319,1985,11491,161.39532,-84.26398,Found,0
DaG 399,1998,11455,15.94283,27.86667,Found,0
al-Jimshan,1955,11450,52.83333,20.7,Found,0
Novosibirsk,1978,11410,82.9,55,Found,0
Rakity,1971,11400,79.9,51.8,Found,0
Dho 1558,2009,11400,54.66433,18.39317,Found,0
Clifford,1962,11360,-103.25833,39.1,Found,0
Kapoeta,1942,11355,33.63333,4.7,Fell,0
Corowa,1964,11340,146.36667,-36,Found,0
Nazareth (iron),1968,11310,-102.105,34.52667,Found,0
Duel Hill (1873),1873,11300,-82.7,35.85,Found,0
Cedartown,1898,11300,-85.26667,34.01667,Found,0
Mount Dyrring,1903,11300,151.2,-32.33333,Found,0
Clark County,1937,11300,-84.16667,38,Found,0
Densmore (1950),1950,11300,-99.64722,39.56583,Found,0
Binya,1981,11300,146.38167,-34.225,Found,0
Grayton,1983,11300,-86.16667,30.31167,Found,0
Mount Browne,1902,11300,141.7,-29.8,Fell,0
Holyoke,1933,11200,-102.3,40.56667,Found,0
Darinskoe,1984,11200,51.96667,51.41667,Found,0
JaH 426,2007,11170,56.39555,19.93787,Found,0
Jaralito,1977,11138,-103.885,26.26583,Found,0
Barrilla,1994,11100,-103.46667,30.78333,Found,0
Answer,1970,11090,140.90694,-21.65972,Found,0
Glen Rose (iron),1934,11000,-97.71667,32.25,Found,0
Bison,1958,11000,-99.71,38.30667,Found,0
Y-75102,1975,11000,35.66667,-71.5,Found,0
Aldama (a),1985,11000,-105.86667,28.83333,Found,0
Goronyo,2001,11000,5.4,13.26667,Found,0
LundsgÌ´rd,1889,11000,13.03333,56.21667,Fell,0
Phuoc-Binh,1941,11000,108.1,15.71667,Fell,0
Frankfort (iron),1866,10900,-84.83333,38.2,Found,0
Elyria,1971,10900,-97.365,38.28,Found,0
Kenna,1972,10900,-103.55333,33.9,Found,0
Saotome,1892,10880,137,36.5,Found,0
Bingera,1880,10841,150.56667,-29.88333,Found,0
JaH 003,1999,10830,55.75833,19.53,Found,0
Credo,1967,10820,120.73333,-30.36667,Found,0
Vengerovo,1950,10800,77.26667,56.13333,Fell,0
Y-81124,1981,10790,35.66667,-71.5,Found,0
Quesa,1898,10750,-0.66667,39,Fell,0
Finney,1962,10700,-101.56667,34.26667,Found,0
Atsuma,1935,10690,141,43,Fell,0
DRPA78013,1978,10600,156.38333,-80.06667,Found,0
Rose City,1921,10600,-83.95,44.51667,Fell,0
Muslyumovo,1964,10580,53.2,55.3,Found,0
ALHA77250,1977,10555,159.66667,-76.71667,Found,0
Nahuel Niyeu,2005,10540,-66.63333,-40.53333,Found,0
ALHA77283,1977,10510,159.66667,-76.71667,Found,0
Lake Grace,1956,10500,118.21667,-33.06667,Found,0
Dho 1026,2003,10500,54.2463,18.65952,Found,0
Vitoria da Conquista,2007,10500,-40.83611,-14.83861,Found,0
Gross-Divina,1837,10500,18.71667,49.26667,Fell,0
Pampanga,1859,10500,120.7,15.08333,Fell,0
Menow,1862,10500,13.15,53.18333,Fell,0
Tambakwatu,1975,10500,112.76667,-7.75,Fell,0
ALHA76003,1976,10495,159.66667,-76.71667,Found,0
Spearman,1934,10400,-101.21667,36.25,Found,0
Johnson City,1937,10400,-101.68333,37.55,Found,0
Barwise,1950,10400,-101.5,34,Found,0
Stretchleigh,1623,10400,-3.95,50.38333,Fell,0
Shalim 003,2001,10350,55.50183,18.18233,Found,0
Shalim 004,2001,10350,55.50183,18.18233,Found,0
Bahjoi,1934,10322,78.5,28.48333,Fell,0
Mantos Blancos,1876,10300,-70.11667,-23.45,Found,0
Nerft,1864,10250,21.5,56.5,Fell,0
RaS 204,2003,10249,56.19198,20.6282,Found,0
Ellerslie,1905,10200,146.76667,-28.9,Found,0
Edmonton (Kentucky),1942,10200,-85.63333,37.03333,Found,0
Raghunathpura,1986,10200,76.465,27.72528,Fell,0
Fermo,1996,10200,13.75333,43.18111,Fell,0
Shiï¿½ï¿½r 036,2002,10175,53.99325,18.50755,Found,0
LON 94104,1994,10172,152.83333,-81.33333,Found,0
A-881986,1988,10147,26,-72,Found,0
Tendo,1910,10100,140.37333,38.35,Found,0
Dho 069,1999,10083,54.731,19.15867,Found,0
RKPA79015,1979,10022,158.5392,-76.21541,Found,0
SaU 425,2005,10007,57.14505,20.93015,Found,0
Misteca,1804,10000,-97.1,16.8,Found,0
Locust Grove,1857,10000,-84.1,33.33333,Found,0
Scottsville,1867,10000,-86.16667,36.76667,Found,0
Teocaltiche,1903,10000,-102.56667,21.43333,Found,0
Cullison,1911,10000,-98.91667,37.61667,Found,0
Kearney,1934,10000,-99.06667,40.68333,Found,0
Sombrerete,1958,10000,-103.66667,23.63333,Found,0
Lismore,1959,10000,143.33333,-35.95,Found,0
Lazarev,1961,10000,11.5,-71.95,Found,0
Kalvesta,1968,10000,-100.25,38.08333,Found,0
Egvekinot,1970,10000,178.2,66.8,Found,0
Gascoyne Junction,1978,10000,115.18333,-24.5,Found,0
Pampa (b),1986,10000,-70.43333,-23.2,Found,0
Pampa (e),1987,10000,-70.43333,-23.2,Found,0
GRO 95500,1995,10000,175,-85.66667,Found,0
DRP 00200,2000,10000,156.38333,-80.06667,Found,0
Plateau du Tademait 003,2002,10000,0.66667,28.29833,Found,0
Milena,1842,10000,16.1,46.18333,Fell,0
Nakhla,1911,10000,30.35,31.31667,Fell,0
Rembang,1919,10000,111.36667,-6.73333,Fell,0
Eagle,1947,10000,-96.47167,40.78167,Fell,0
Tugalin-Bulen,1967,10000,105.38333,45.46667,Fell,0
El Idrissia,1989,10000,3.25,34.41667,Fell,0
Djoumine,1999,10000,9.55,36.95,Fell,0
Tagish Lake,2000,10000,-134.20139,59.70444,Fell,0
Palmersville,1908,9979,-88.60283,36.4665,Found,0
Round Top (a),1934,9935,-96.65139,30.05806,Found,0
Hope Creek,1998,9830,-146.26667,65.38333,Found,0
Shields,1962,9780,-100.35,38.7,Found,0
NWA 778,1999,9747,-5.26667,29.41667,Found,0
Mulberry Draw,1963,9716,-100.13333,35.63333,Found,0
Utrecht,1843,9700,5.18333,52.11667,Fell,0
Khohar,1910,9700,81.53333,25.1,Fell,0
Dho 131,2000,9680,54.82267,19.136,Found,0
Acfer 371,2002,9608,4.46533,27.67817,Found,0
Bluewater,1946,9540,-107.96667,35.26667,Found,0
Verkhnyi Saltov,2001,9530,36.8001,50.11112,Found,0
Fluvanna (a),1967,9500,-101.11667,32.8,Found,0
Reggane 003,1989,9500,0.5,25.63333,Found,0
Ash Creek,2009,9500,-97.01,31.805,Fell,0
Shalim 009,2009,9472,55.47592,18.87253,Found,0
Ural,1981,9400,66,55.8,Found,0
Kalkaska,1947,9399,-85.13667,44.64694,Found,0
Blanco,1996,9368,-107.79128,36.73158,Found,0
Sandtown,1938,9350,-91.63333,35.93333,Found,0
Avanhandava,1952,9330,-49.95083,-21.46028,Fell,0
Grady (1937),1937,9300,-103.31667,34.8,Found,0
Rush Creek,1938,9300,-102.71667,38.61667,Found,0
Buffalo Gap,2003,9300,-99.99306,32.24611,Found,0
Paint Creek,1868,9300,-82,40.5,Fell,0
ALHA77231,1977,9270,159.66667,-76.71667,Found,0
Deï¿½ï¿½n Funes,1977,9260,-64.2,-30.43333,Found,0
Alexandrovsky,1900,9251,31.81667,50.95,Fell,0
Tiffa 007,2001,9250,11.587,20.20117,Found,0
Lua,1926,9241,75.15,24.95,Fell,0
QUE 90200,1990,9217,162.25299,-84.59784,Found,0
Waingaromia,1915,9200,178.08333,-38.25,Found,0
Wickenburg (stone),1940,9200,-112.73333,33.96667,Found,0
Armel,1967,9200,-102.13333,39.76667,Found,0
Dho 772,2000,9187,54.76243,19.0855,Found,0
Bernic Lake,2002,9162,-95.52937,50.43845,Found,0
Palo Verde Mine,2004,9158,-114.19142,34.71457,Found,0
Motta di Conti,1868,9150,8.5,45.2,Fell,0
Bouri,1996,9100,40.56667,10.26667,Found,0
Franklin,1921,9062,-86.56667,36.71667,Found,0
Binneringie,1946,9056,122.12389,-31.4875,Found,0
Barbacena,1918,9026,-43.93333,-21.21667,Found,0
Shiï¿½ï¿½r 007,2001,9024,53.5675,18.2925,Found,0
Y-82111,1982,9011,35.66667,-71.5,Found,0
Landor,1931,9000,117,-25.66667,Found,0
ALH 84004,1984,9000,158.67942,-76.73156,Found,0
El Atchane 003,1991,9000,4.20861,29.75944,Found,0
LON 94103,1994,9000,152.83333,-81.33333,Found,0
DaG 901,1998,9000,16.9135,27.88083,Found,0
Mixbury,1725,9000,-1.11667,52,Fell,0
Salles,1798,9000,4.63333,46.05,Fell,0
Tadjera,1867,9000,5.41667,36.18333,Fell,0
Rakovka,1878,9000,37.03333,52.98333,Fell,0
Hainaut,1934,9000,3.73333,50.31667,Fell,0
Granes,1964,9000,2.25,42.9,Fell,0
Danby Dry Lake,2000,8991,-115.05,34.216667,Found,0
Arlington,1894,8940,-94.1,44.6,Found,0
Hyattville,2008,8911,-107.67405,44.33823,Found,0
RaS 271,2008,8904,56.12155,20.5247,Found,0
Hat Creek,1939,8900,-104.41667,42.91667,Found,0
Moorleah,1930,8888,145.6,-40.975,Fell,0
Ivanovka,1983,8870,52.8,54.5,Found,0
Spade,2000,8860,-102.12833,34.00111,Found,0
Dho 058,1999,8852,54.75967,19.17067,Found,0
Y-791785,1979,8826,35.66667,-71.5,Found,0
Motpena (a),1968,8810,138.26667,-31.1,Found,0
Garraf,1905,8800,1.91667,41.26667,Found,0
Frenchman Bay,1964,8800,115.16667,-30.60833,Found,0
Chandakapur,1838,8800,76.01667,20.26667,Fell,0
Bogou,1962,8800,0.7,12.5,Fell,0
Dho 146,2000,8795,54.41567,18.34367,Found,0
Acfer 348,2001,8750,4.27817,27.97933,Found,0
Redfields,1969,8740,116.5,-30.71667,Found,0
Withrow,1950,8732,-119.83,47.70667,Found,0
ALHA80101,1980,8725,159.275,-76.77389,Found,0
Howe,1938,8630,-96.6,33.5,Found,0
Murfreesboro,1847,8600,-86.41667,35.83333,Found,0
Canyon City,1875,8600,-123.1,40.9,Found,0
Bishop Canyon,1912,8600,-108.5,38,Found,0
Burdett,1940,8600,-99.53333,38.23333,Found,0
Lazbuddie,1970,8600,-102.75,34.5,Found,0
Seibert (b),1991,8600,-102.88667,39.27667,Found,0
Fife,2003,8600,-99.40583,31.38972,Found,0
Monroe,1849,8600,-80.5,35.25,Fell,0
Bori,1894,8600,78.03333,21.95,Fell,0
Bartlett,1938,8590,-97.5,30.83333,Found,0
Hardesty,1986,8580,-101.19,36.57,Found,0
SaU 008,1999,8579,57.319,20.9805,Found,0
PAT 91501,1991,8551,-64.5,-84.71667,Found,0
Mirzapur,1910,8510,83.25,25.68333,Fell,0
SaU 423,2005,8508,57.09173,21.01332,Found,0
Amherst,1947,8500,-99.2,40.8,Found,0
Dorrigo,1948,8500,152.66667,-30.28333,Found,0
Seres,1818,8500,23.56667,41.05,Fell,0
RKPA78002,1978,8483,159.25,-76.26667,Found,0
Gaylord,1983,8480,-98.7,39.61667,Found,0
JaH 293,2005,8420,56.47927,19.79363,Found,0
A-881894,1988,8419,26,-72,Found,0
Burkett,1913,8400,-99.25,32.03333,Found,0
Otinapa,1986,8400,-105.03333,24.18333,Found,0
Sindhri,1901,8400,69.55,26.21667,Fell,0
Cherokee Springs,1933,8400,-81.88333,35.03333,Fell,0
Harleton,1961,8360,-94.51167,32.675,Fell,0
Taouz 002,1999,8350,-3.96667,30.9,Found,0
Delaware,1972,8346,-93.5,35.28333,Found,0
RC 102,1988,8345,-103.25,33.995,Found,0
PCA 82503,1982,8308,-68.7,-85.63333,Found,0
Bouvante,1978,8300,5.26778,44.92222,Found,0
St. Mesmin,1866,8300,3.93333,48.45,Fell,0
A-9048,1990,8271,26,-72,Found,0
Shiï¿½ï¿½r 043,2003,8267,53.81247,18.59243,Found,0
HaH 236,1997,8261,13.06517,28.52633,Found,0
Slovak,1962,8220,-91.58333,34.65,Found,0
Reid 010,1986,8220,128.85,-30.32167,Found,0
EET 82603,1982,8210,157.33083,-76.29861,Found,0
Welland,1888,8200,-79.21667,43.01667,Found,0
Uvalde,1915,8200,-99.76667,29.2,Found,0
Mukinbudin,1938,8200,118.2,-30.91667,Found,0
Kennard,1961,8200,-96.16667,41.48333,Found,0
Lovina,1981,8200,115.21667,-8.65,Found,0
Chainpur,1907,8200,83.48333,25.85,Fell,0
DaG 487,1997,8189,16.41667,27.38333,Found,0
Kingfisher,1950,8180,-97.93333,35.83333,Found,0
DaG 638,1998,8170,16.15,26.95,Found,0
Nadiabondi,1956,8165,1,12,Fell,0
Springer,1965,8143,-97.185,36.34611,Found,0
EET 87500,1987,8132,156.07013,-76.05029,Found,0
A-881785,1988,8121,26,-72,Found,0
Leoville,1961,8100,-100.46722,39.63333,Found,0
Sawyer,2006,8100,-98.62993,37.52392,Found,0
AH 011,2002,8056,57.0032,19.86607,Found,0
Chico Hills,1951,8030,-104.5,36,Found,0
NWA 841,2001,8012,-9.03667,30.19267,Found,0
New Almelo,1917,8000,-100,39.66667,Found,0
Oubari,1944,8000,13.58333,26.8,Found,0
ALH 87900,1987,8000,159.34471,-76.75009,Found,0
Alnif,1992,8000,-5.16667,30.66667,Found,0
QUE 93012,1993,8000,162.93682,-84.57534,Found,0
GRO 95501,1995,8000,175,-85.66667,Found,0
NWA 512,1999,8000,-5,23.6,Found,0
Talbachat n'aï¿½ï¿½t Isfoul,1999,8000,-5.23333,29.98333,Found,0
Dho 405,2001,8000,54.53087,19.3023,Found,0
NWA 6963,2011,8000,-11.131583,28.002467,Found,0
Turin,1782,8000,7.68333,45.06667,Fell,0
Verkhne Tschirskaia,1843,8000,43.2,48.41667,Fell,0
SchÌ¦nenberg,1846,8000,10.46667,48.11667,Fell,0
Grossliebenthal,1881,8000,30.58333,46.35,Fell,0
Mighei,1889,8000,30.96667,48.06667,Fell,0
Orebro,1958,8000,15.21667,59.28333,Fell,0
Enshi,1974,8000,109.5,30.3,Fell,0
LEW 87030,1987,7987,161.08333,-84.28333,Found,0
Kaffir (c),1980,7947,-101.815,34.67167,Found,0
EETA79001,1979,7942,157.26667,-76.29083,Found,0
Belly River,1943,7900,-113,49.5,Found,0
Kybunga,1956,7900,138.48333,-33.9,Found,0
Warden,1989,7868,116.93333,-23.26667,Found,0
HaH 320,2001,7823,12.206,28.97067,Found,0
Hardwick,1937,7800,-96.16667,43.8,Found,0
Wimberley,1976,7800,-98.11667,29.96667,Found,0
Phum Sambo,1933,7800,105.48333,12,Fell,0
Kyle,1965,7780,-97.86667,29.975,Found,0
DaG 994,2002,7769,16.44533,27.48717,Found,0
Melvern Lake,1950,7746,-95.78056,38.525,Found,0
SaU 016,1999,7745,57.32717,20.97867,Found,0
Murphy,1899,7700,-84.03333,35.1,Found,0
Clinton,1950,7700,-84.2,36.08333,Found,0
Ventura,1953,7700,-119.3,34.25,Found,0
Clover Springs,1954,7700,-111.36667,34.45,Found,0
Dho 1576,2010,7700,54.23333,18.51667,Found,0
Larissa,1706,7700,22.41667,39.63333,Fell,0
Ohuma,1963,7700,8.5,6.75,Fell,0
Dawn (a),1981,7682,-102.12,34.86,Found,0
Williston,1962,7645,-103.65,47.98333,Found,0
La CiÌ©nega,2007,7632,-111.93587,30.20186,Found,0
Dora (pallasite),1955,7600,-103.955,33.92667,Found,0
Sutton,1964,7600,-97.86667,40.6,Found,0
Brandon,1975,7580,-101.80167,40.81,Found,0
SaU 272,2003,7563,57.21405,20.78667,Found,0
ALH 84002,1984,7554,158.82886,-76.74254,Found,0
Dho 1562,2004,7550,54.39888,18.926,Found,0
Tabor,1753,7540,14.65,49.4,Fell,0
EET 87536,1987,7526,157.16667,-76.18333,Found,0
JaH 098,2002,7521,56.09232,19.2286,Found,0
San Francisco del Mezquital,1868,7500,-104.36667,23.48333,Found,0
Ella Island,1971,7500,-25.11667,72.88333,Found,0
Kimbolton,1976,7500,175.73028,-40.07139,Found,0
Nanjemoy,1825,7500,-77.16667,38.41667,Fell,0
Pfullingen,1904,7500,9.21667,48.46667,Fell,0
Bo Xian,1977,7500,115.83333,33.83333,Fell,0
JaH 279,2005,7494,55.9528,19.97303,Found,0
Millrose,1984,7464,121,-26.33333,Found,0
QUE 93011,1993,7460,162.44741,-84.61597,Found,0
Arroyo Aguiar,1950,7450,-60.66667,-31.41667,Fell,0
Idalia,1968,7400,-102.295,39.695,Found,0
Dho 617,2001,7395,54.70645,19.161,Found,0
DaG 478,1998,7367,15.98183,27.75467,Found,0
EET 87533,1987,7365,157.16667,-76.18333,Found,0
Lahmada,1998,7360,-9.5,27.16667,Found,0
Edmonton (Canada),1939,7340,-113.41667,53.66667,Found,0
Ijopega,1975,7330,145.36667,-6.03333,Fell,0
Castalia,1874,7300,-78.06667,36.08333,Fell,0
GRA 98001,1998,7297,-141.5,-86.71667,Found,0
Shiï¿½ï¿½r 025,1998,7293,53.8319,18.1074,Found,0
Dho 276,2001,7285,54.135,18.65,Found,0
Calico Rock,1938,7275,-92.15,36.08333,Found,0
PCA 91011,1991,7273,-69.02959,-85.67367,Found,0
QaM 001,2005,7269,57.7291,21.37015,Found,0
Inman,1966,7250,-97.66667,38.25,Found,0
BremervÌ¦rde,1855,7250,9.1,53.4,Fell,0
Supuhee,1865,7235,84.21667,26.71667,Fell,0
Bir Rebaa,1993,7200,8.41667,31.66667,Found,0
Bluewing 005,1999,7200,-118.94657,40.28563,Found,0
DRPA78002,1978,7188,156.38333,-80.06667,Found,0
RaS 252,2005,7171,56.46612,20.0534,Found,0
Round Top (b),1939,7166,-96.7,30.06667,Found,0
DaG 256,1997,7141,16.17817,27.06117,Found,0
Mart,1898,7140,-96.88333,31.5,Found,0
Avoca (Texas),1924,7100,-99.8,32.9,Found,0
Morven,1925,7100,171.13333,-44.81667,Found,0
JaH 369,2003,7100,55.82243,19.28525,Found,0
Canton,1894,7030,-84.48333,34.2,Found,0
Petropavlovsk,1841,7000,87.18333,53.35,Found,0
Luis Lopez,1896,7000,-106.96667,34,Found,0
Elm Creek,1906,7000,-96.2,38.5,Found,0
Lombard,1953,7000,-111.4,46.1,Found,0
Flagg,1954,7000,-102.51667,34.43333,Found,0
Salla,1963,7000,28.45,66.8,Found,0
Ipitinga,1989,7000,-53.81667,0.35,Found,0
Hidden Valley,1991,7000,145.41667,-19.11667,Found,0
NWA 256,1999,7000,-5.58333,29.91667,Found,0
JaH 407,2006,7000,56.6103,19.80152,Found,0
Schellin,1715,7000,15.05,53.35,Fell,0
Borkut,1852,7000,24.28333,48.15,Fell,0
Lancon,1897,7000,5.11667,43.75,Fell,0
Queen's Mercy,1925,7000,28.7,-30.11667,Fell,0
Lanzenkirchen,1925,7000,16.23333,47.75,Fell,0
Repeev Khutor,1933,7000,45.66667,48.6,Fell,0
Ipiranga,1972,7000,-54.5,-25.5,Fell,0
Sfax,1989,7000,10.71667,34.75,Fell,0
Dashoguz,1998,7000,59.685,41.98444,Fell,0
Tissint,2011,7000,-7.61123,29.48195,Fell,0
MAC 88108,1988,6988,160.5,-84.21667,Found,0
Merweville,1977,6970,21.68333,-32.75833,Found,0
Kendleton,1939,6937,-96,29.45,Fell,0
Dho 375,2000,6933,54.79423,19.03822,Found,0
Segowlie,1853,6930,84.78333,26.75,Fell,0
Sam's Valley,1894,6920,-122.875,42.53333,Found,0
Pleï¿½ï¿½coi,2008,6913,26.70972,45.275,Fell,0
ALH 84055,1984,6901,158.74157,-76.72944,Found,0
Mayday,1955,6900,-96.925,39.47444,Found,0
Viedma,2003,6900,-62.85,-41.06667,Found,0
Lillaverke,1930,6862,15.86667,56.65,Fell,0
Marsland,1933,6850,-103.3,42.45,Found,0
Providence,1903,6804,-85.23333,38.56667,Found,0
Union County,1853,6800,-84,34.75,Found,0
Marshall County,1860,6800,-88.25,37,Found,0
Cleburne,1907,6800,-97.41667,32.31667,Found,0
Sanderson,1936,6800,-102.15,30.13333,Found,0
Broken Bow,1937,6800,-99.7,41.43333,Found,0
Jerome (Idaho),1954,6800,-114.83333,42.63333,Found,0
Hope,1955,6800,-93.6,33.68333,Found,0
St. Peter,1957,6800,-100.03333,39.4,Found,0
Coonana,1962,6800,140.7,-29.85,Found,0
Gunlock,1982,6800,-113.78333,37.28333,Found,0
Dho 435,2001,6800,54.52505,18.8871,Found,0
Marsala,1834,6800,12.41667,37.78333,Fell,0
Kavarpura,2006,6800,75.81333,25.14333,Fell,0
Y-791869,1979,6784,35.66667,-71.5,Found,0
Dresden (Kansas),1953,6760,-100.46306,39.61667,Found,0
SaU 035,2000,6760,57.18,20.67367,Found,0
JaH 501,2007,6751,56.30913,19.75313,Found,0
SaU 072,2001,6750,57.169,20.63817,Found,0
Y-8435,1984,6748,35.66667,-71.5,Found,0
Lushton,1914,6700,-97.74972,40.74972,Found,0
Eva,1965,6700,-101.90833,36.81667,Found,0
Acfer 001,1989,6700,3.61667,27.5,Found,0
Sarir Tibesti 001,1994,6697,18.41433,24.297,Found,0
Keen Mountain,1950,6690,-82,37.21667,Found,0
Oliver,1984,6690,-103.68333,41.2,Found,0
A-880197,1988,6687,26,-72,Found,0
Lemmon,1984,6680,-102.18333,45.93333,Found,0
Kendrapara,2003,6669,86.70278,20.4625,Fell,0
Fremont Butte,1963,6647,-105.5,38.5,Found,0
Y-81132,1981,6607,35.66667,-71.5,Found,0
Chambord,1904,6600,-72.06667,48.45,Found,0
Tokio (a),1974,6600,-102.63167,33.21667,Found,0
HaH 147,1995,6600,12.75,28.66017,Found,0
Puquios,1885,6580,-69.91667,-27.15,Found,0
Okahandja,1926,6580,16.93333,-21.98333,Found,0
Daule,2008,6580,-79.95756,-1.87089,Fell,0
Dho 260,2001,6574,54.2505,18.7865,Found,0
Allred,1978,6570,-102.95,33.1,Found,0
A-881899,1988,6567,26,-72,Found,0
Cobija,1892,6530,-70.25,-22.56667,Found,0
Otomi,1867,6510,140.35,38.4,Fell,0
QUE 94202,1994,6501,168,-84,Found,0
Ankober,1942,6500,39.71667,9.53333,Fell,0
ALHA77232,1977,6494,159.66667,-76.71667,Found,0
Dho 1525,2008,6476,54.39633,18.77633,Found,0
Cereseto,1840,6460,8.3,45.08333,Fell,0
Hub,1991,6452,-102.59433,34.54,Found,0
ALHA77305,1977,6444,159.66667,-76.71667,Found,0
MAC 88111,1988,6442,160.5,-84.21667,Found,0
JaH 457,2007,6442,56.32925,19.73183,Found,0
Babb's Mill (Troost's Iron),1842,6400,-82.88333,36.3,Found,0
Roper River,1953,6400,135,-15,Found,0
Morton,1980,6400,-102.76667,33.71667,Found,0
Ocate,1986,6400,-105.04833,36.29533,Found,0
HaH 125,1995,6400,13.12417,28.466,Found,0
Grandview,2008,6400,-101.938333,32.788333,Found,0
Barbotan,1790,6400,-0.05,43.95,Fell,0
Ambapur Nagla,1895,6400,78.25,27.66667,Fell,0
Gambat,1897,6400,68.53333,27.35,Fell,0
Mihonoseki,1992,6380,133.22,35.56833,Fell,0
Sierra Sandon,1923,6330,-69.28333,-25.16667,Found,0
Crow Peak,1958,6320,-103.972,44.47733,Found,0
RaS 399,2010,6319,55.70925,20.15122,Found,0
NWA 1664,2002,6310,-3.18333,29.53333,Found,0
Acfer 084,1990,6300,3.86667,27.55,Found,0
SaU 265,2002,6290,57.18392,20.70653,Found,0
A-881164,1988,6278,26,-72,Found,0
Floydada (b),1999,6266,-101.33333,33.98333,Found,0
MIB 01001,2001,6260,161.31583,-72.68417,Found,0
HaH 116,1995,6250,13.0485,28.91617,Found,0
Rhineland,1961,6240,-99.61667,33.53333,Found,0
Mosca,1942,6220,-105.83333,37.63333,Found,0
QUE 93010,1993,6215,162.50513,-84.63092,Found,0
Axtell,1943,6200,-96.97167,31.66,Found,0
Summerfield,1979,6200,-102.41667,34.76667,Found,0
Neuschwanstein,2002,6189,10.80833,47.525,Fell,0
Pirapora,1888,6175,-45,-17.3,Found,0
Y-790957,1979,6175,35.66667,-71.5,Found,0
Ovid,1939,6169,-102.4,40.96667,Found,0
Y-86796,1986,6140,35.66667,-71.5,Found,0
Khmelevka,1929,6109,75.33333,56.75,Fell,0
Juarez,1938,6100,-60.15,-37.55,Found,0
Haven,1950,6100,-97.75583,37.96417,Found,0
Y-75028,1975,6100,35.66667,-71.5,Found,0
Nagy-BorovÌ©,1895,6100,19.5,49.16667,Fell,0
Hedjaz,1910,6100,35.66667,27.33333,Fell,0
PCA 91012,1991,6092,-69.00537,-85.66741,Found,0
Forksville,1924,6067,-78.08333,36.78333,Fell,0
A-87308,1987,6060,26,-72,Found,0
Quenggouk,1857,6045,95.18333,17.76667,Fell,0
NWA 1717,2002,6032,-13,21,Found,0
Wairarapa Valley,1863,6000,175.13333,-41.31667,Found,0
Hendersonville,1901,6000,-81.46667,35.31667,Found,0
South Byron,1915,6000,-78.03333,43.03333,Found,0
Cranfills Gap,1940,6000,-97.75,31.75,Found,0
Sidney,1941,6000,-102.9,41.05,Found,0
Portales (c),1967,6000,-103.41667,34.1,Found,0
Oxford,1985,6000,-99.66667,40.16667,Found,0
Griffith,1985,6000,-102.81667,33.71667,Found,0
Roundsprings,1986,6000,-98.43333,39.16667,Found,0
Foum Zguid,1998,6000,-6.9,30.06667,Found,0
NWA 4255,2002,6000,-7.8,27.85,Found,0
Alais,1806,6000,4.08333,44.11667,Fell,0
Kuleschovka,1811,6000,33.5,50.75,Fell,0
Bishopville,1843,6000,-80.28333,34.16667,Fell,0
Oesel,1855,6000,23,58.5,Fell,0
Ornans,1868,6000,6.15,47.11667,Fell,0
Cynthiana,1877,6000,-84.25,38.4,Fell,0
Ruschany,1894,6000,24.88333,52.88333,Fell,0
Tauk,1929,6000,44.45,35.13333,Fell,0
Meru,1945,6000,37.66667,0,Fell,0
Rupota,1949,6000,38.76667,-10.26667,Fell,0
Nikolskoe,1954,6000,37.33333,56.11667,Fell,0
Chernyi Bor,1964,6000,30.1,53.7,Fell,0
Alta'ameem,1977,6000,44.21556,35.27333,Fell,0
Maromandia,2002,6000,48.1,-14.2,Fell,0
Dho 294,2001,5988,54.5,18.61333,Found,0
Sappa,1983,5950,-100.51,39.84433,Found,0
Travis County (b),1889,5900,-97.95278,30.55556,Found,0
Culbertson,1913,5900,-100.83333,40.23333,Found,0
Kossuth,1975,5900,-84.35,40.66667,Found,0
Jhung,1873,5900,72.38333,31.3,Fell,0
Yaddlethorpe,1963,5900,-0.65,53.55,Fell,0
Xi Ujimgin,1980,5900,117.5,44.66667,Fell,0
Cashion,1936,5897,-97.70333,35.84778,Found,0
ALHA77225,1977,5878,159.66667,-76.71667,Found,0
as-Su'aydan,1960,5855,55.305,21.25417,Found,0
Ojuelos Altos,1926,5850,-5.4,38.18333,Fell,0
ALH 90411,1990,5837,156.93013,-76.98079,Found,0
Misshof,1890,5800,23,56.66667,Fell,0
PCA 91014,1991,5768,-68.97649,-85.67252,Found,0
Kemer,2008,5760,29.41822,36.54194,Fell,0
JaH 600,2009,5751,55.6831,19.79552,Found,0
Washington County,1927,5750,-103.16667,39.7,Found,0
Chinautla,1902,5720,-90.5,14.5,Found,0
Cowell,1932,5717,136.01667,-33.3,Found,0
A-87272,1987,5706,26,-72,Found,0
Adams County,1928,5700,-103.76667,39.96667,Found,0
Grady (c),1970,5700,-103.31667,34.8,Found,0
NWA 1580,2001,5700,-4,31.33333,Found,0
Gumoschnik,1904,5700,24.7,42.9,Fell,0
Yafa,2000,5700,45.17,13.71111,Fell,0
Dho 222,2000,5680,54.37,18.69333,Found,0
A-880102,1988,5676,24.5,-72.83333,Found,0
Dandapur,1878,5650,83.96667,26.91667,Fell,0
Dho 138,2000,5640,54.36933,18.31133,Found,0
Attica,1996,5622,-98.13333,37.25,Found,0
Ilinskaya Stanitza,1915,5621,57.38333,51.23333,Found,0
Roy (1934),1934,5619,-104.2,35.95,Found,0
Newport,1923,5600,-91.26667,35.6,Found,0
Kuga,1950,5600,132.08333,34.1,Found,0
Loop,1962,5600,-102.28333,32.9,Found,0
Kress (c),1978,5600,-101.71667,34.33833,Found,0
RaW 014,2006,5591,58.40432,21.05978,Found,0
Felt (b),1990,5590,-102.7,36.58333,Found,0
SaU 209,2002,5585,57.2474,20.33168,Found,0
HaH 097,1995,5580,13.45033,28.62167,Found,0
Y-74077,1974,5575,36.35833,-71.83556,Found,0
Cowra,1888,5560,148.68333,-33.85,Found,0
Sylacauga,1954,5560,-86.2945,33.18836,Fell,0
Pribram,1959,5555,14.03333,49.66667,Fell,0
Shiï¿½ï¿½r 162,2006,5525,53.83333,18.56667,Found,0
KG 001,2008,5511,9.72872,32.681,Found,0
Thurlow,1888,5500,-77.58333,44.75,Found,0
Kissij,1899,5500,50.88333,54.86667,Found,0
Naretha,1915,5500,124.83333,-31,Found,0
Atlanta,1938,5500,-92.75,31.8,Found,0
Acfer 098,1990,5500,3.88333,27.46667,Found,0
St. Christophe-la-Chartreuse,1841,5500,-1.5,46.95,Fell,0
Santa Isabel,1924,5500,-61.7,-33.9,Fell,0
Min-Fan-Zhun,1952,5500,120.66667,32.33333,Fell,0
Dongtai,1970,5500,120.78333,32.91667,Fell,0
SaU 013,1999,5496,57.32083,20.9655,Found,0
ALHA81015,1981,5489,158.78126,-76.71367,Found,0
Y-790723,1979,5483,35.66667,-71.5,Found,0
Ikhrarene,1969,5465,1.04167,28.60417,Found,0
Bovedy,1969,5460,-6.33333,54.56667,Fell,0
JaH 284,2005,5448,56.67972,19.74857,Found,0
A-87029,1987,5444,26,-72,Found,0
Dho 148,2000,5432,54.481,18.32167,Found,0
Seminole (f),2008,5421,-102.67268,32.70038,Found,0
GSS 020,2000,5420,25.73333,26.01667,Found,0
Denton County,1856,5400,-97,33,Found,0
Binda,1912,5400,149.38333,-34.31667,Found,0
Felt,1970,5400,-102.78333,36.55,Found,0
Tnz 057,2002,5400,0.15,25.26667,Found,0
Searsmont,1871,5400,-69.2,44.36667,Fell,0
Myersville,1969,5397,-97.40278,28.95,Found,0
Rica Aventura,1910,5395,-69.61667,-21.98333,Found,0
Cheder,2003,5390,94.6,51.53333,Found,0
Tobe,1963,5386,-103.58333,37.2,Found,0
KG 007,2011,5381,9.8593,32.75832,Found,0
Whitecourt,2007,5372,-115.5975,53.999167,Found,0
MAC 88110,1988,5370,160.5,-84.21667,Found,0
GRO 95502,1995,5363,175,-85.66667,Found,0
PCA 82506,1982,5316,-67.71308,-85.69109,Found,0
Arrabury,1960,5300,141.08333,-26.5,Found,0
Dho 157,2000,5300,54.79267,19.08833,Found,0
NWA 850,2001,5300,-5.89233,30.40667,Found,0
Bukhara,2001,5300,64.60035,39.77978,Fell,0
Ryder Gletcher,1988,5288,-49,81.16667,Found,0
DaG 551,1997,5265,16.12567,27.27683,Found,0
Casilda,1937,5250,-61.13333,-33.1,Found,0
Coomandook,1939,5230,139.75,-35.41667,Found,0
CyDL 033,1999,5220,-116.7763,35.05605,Found,0
Lixna,1820,5213,26.43333,56,Fell,0
HaH 290,1999,5205,12.6275,29.01483,Found,0
Roosevelt,1972,5200,-98.95,34.86667,Found,0
NWA 1579,2001,5200,-4.85,31.5,Found,0
Cold Bokkeveld,1838,5200,19.38333,-33.13333,Fell,0
Corn,1994,5176,-98.74889,35.405,Found,0
Ouallen,1936,5174,0.08333,24.16667,Found,0
Dho 414,2001,5156,54.24288,18.77153,Found,0
Touat 002,2002,5150,-0.51667,27.46667,Found,0
Tieret 010,2010,5150,10.00652,30.98022,Found,0
NWA 767,2000,5146,-5.08833,30.63583,Found,0
Claytonville (b),1978,5136,-101.65833,34.34833,Found,0
JaH 229,2005,5135,56.60775,19.7058,Found,0
Dho 1439,2003,5132,54.455,18.58333,Found,0
Twin City,1955,5130,-82.01667,32.58333,Found,0
HaH 124,1995,5130,13.18183,28.47233,Found,0
RaS 266,2006,5130,56.39902,20.00803,Found,0
Garrison,1969,5116,-103.34667,33.86333,Found,0
DaG 002,1995,5105,16.05817,27.1255,Found,0
Silver Bell,1939,5100,-111.56667,32.48333,Found,0
DaG 406,1998,5100,15.82383,28.14033,Found,0
Blanket,1909,5100,-98.83333,31.83333,Fell,0
Pasamonte,1933,5100,-103.4,36.21667,Fell,0
LON 94105,1994,5086,152.83333,-81.33333,Found,0
JaH 054,2004,5079,55.11517,19.63033,Found,0
Archie,1932,5070,-94.3,38.5,Fell,0
Y-74371,1974,5068,35.49444,-71.80417,Found,0
A-880101,1988,5061,26,-72,Found,0
HaH 259,1998,5055,11.56667,28.75,Found,0
Villa Regina,2005,5030,-67.06667,-39.1,Found,0
RaS 384,2010,5026,56.40473,20.0049,Found,0
Watonga,1960,5025,-98.4,35.833333,Found,0
Dho 132,2000,5010,54.58067,19.15,Found,0
Smithland,1839,5000,-88.4,37.13333,Found,0
Smith's Mountain,1863,5000,-80,36.41667,Found,0
Greenbrier County,1880,5000,-80.31667,37.83333,Found,0
San Cristobal,1882,5000,-69.5,-23.43333,Found,0
Persimmon Creek,1893,5000,-84.23333,35.05,Found,0
Temple,1959,5000,-97.3,31.11667,Found,0
Stoneham,1960,5000,-103.69717,40.63783,Found,0
Queretaro,1971,5000,-100.38333,20.63333,Found,0
Nainital,1980,5000,79.43333,29.36667,Found,0
HaH 183,1996,5000,13.33417,28.61067,Found,0
Dho 393,2001,5000,54.83312,19.13922,Found,0
Dho 607,2001,5000,54.19053,18.7288,Found,0
Essex,2002,5000,-115.03333,34.61167,Found,0
Jonzac,1819,5000,-0.45,45.43333,Fell,0
Drake Creek,1827,5000,-86.5,36.4,Fell,0
Nulles,1851,5000,0.75,41.63333,Fell,0
Buschhof,1863,5000,25.78333,46.45,Fell,0
Shergotty,1865,5000,84.83333,24.55,Fell,0
Kerilis,1874,5000,-3.3,48.4,Fell,0
Collescipoli,1890,5000,12.61667,42.53333,Fell,0
Magnesia,1899,5000,27.51667,37.86667,Fell,0
Shupiyan,1912,5000,74.83333,33.71667,Fell,0
Raco,1957,5000,-65.45,-26.66667,Fell,0
El Tigre,1993,5000,-103.05167,19.96722,Fell,0
Galkiv,1995,5000,30.78333,51.68333,Fell,0
QUE 99017,1999,4999,168,-84,Found,0
Dho 1275,2003,4999,54.63957,18.82852,Found,0
Maziba,1942,4975,30,-1.21667,Fell,0
Ste. Marguerite,1962,4960,3,50.76667,Fell,0
Dho 239,2000,4950,54.48,18.4235,Found,0
MET 96501,1996,4939,155.75,-79.68333,Found,0
Dho 281,2001,4936,54.29833,18.575,Found,0
Javorje,2009,4920,14.19166,46.16244,Found,0
Raoyang,1919,4910,115.7,38.2,Fell,0
Cedar (Kansas),1937,4900,-98.98333,39.7,Found,0
Monte das Fortes,1950,4885,-8.25,38.01667,Fell,0
QUE 87401,1987,4866,163.67432,-84.41511,Found,0
Y-793375,1979,4864,35.66667,-71.5,Found,0
Eads,1975,4860,-102.82667,38.47,Found,0
Mayo Belwa,1974,4850,12.08333,8.96667,Fell,0
DaG 100,1996,4840,16.10883,27.12117,Found,0
Quartz Mountain,1935,4832,-116.7,37.2,Found,0
JaH 295,2005,4820,56.46762,19.8015,Found,0
GRO 95503,1995,4802,175,-85.66667,Found,0
Tulia (b),1917,4800,-101.7,34.53333,Found,0
New Westville,1941,4800,-84.81667,39.8,Found,0
Lone Island Lake,2005,4800,-95.38537,50.00957,Found,0
La Luz,2005,4798,-105.85083,33.00383,Found,0
Garnett,1938,4788,-95.25,38.26667,Found,0
SaU 295,2004,4780,57.03862,21.00987,Found,0
Dho 192,1999,4779,54.24333,18.26167,Found,0
HaH 109,1995,4777,12.95283,28.5885,Found,0
Y-86787,1986,4771,35.66667,-71.5,Found,0
Fort Stockton,1952,4763,-103.06667,30.91667,Found,0
South Plains,1971,4763,-101.25,34.26667,Found,0
Lexington County,1880,4760,-81.25,34,Found,0
Reid 011,1986,4760,128.3,-30.21667,Found,0
HaH 103,1995,4760,13.1715,28.61817,Found,0
PCA 02067,2002,4751,-68.7,-85.63333,Found,0
JaH 570,2009,4748,56.3304,19.7524,Found,0
Okano,1904,4742,135.2,35.08333,Fell,0
Tnz 034,1991,4720,-0.09028,25.43472,Found,0
Itqiy,1990,4720,-12.95217,26.59083,Fell,0
Tiffa 002,1997,4705,11.52683,19.696,Found,0
Muraid,1924,4703,90.21667,24.5,Fell,0
Frankel City,1977,4700,-102.745,32.33333,Found,0
Hot Springs,1995,4700,-118.96667,39.66667,Found,0
Al Huwaysah 012,2010,4695,55.34027,22.67752,Found,0
Ellis County,1948,4692,-99.33333,38.78333,Found,0
SaU 010,1999,4682,57.30583,20.992,Found,0
Ramsdorf,1958,4682,6.93333,51.88333,Fell,0
GRV 051532,2006,4680,75.313056,-72.935556,Found,0
Ulyanovsk,2006,4680,48.591447,54.364947,Found,0
SaU 066,2000,4670,56.67667,20.53167,Found,0
Dho 1524,2008,4652,54.60783,18.51133,Found,0
Shallowater,1936,4650,-101.93333,33.7,Found,0
Gail,1948,4650,-101.6,32.7,Found,0
Pony Creek,1947,4642,-99.95,31.66333,Found,0
Maigatari-Danduma,2004,4629,9.38333,12.83333,Fell,0
Dho 365,2000,4623,54.79483,19.09138,Found,0
Batyushkovo,2007,4620,35.2995,55.54867,Found,0
Muizenberg,1880,4610,18.46667,-34.1,Found,0
Ningqiang,1983,4610,105.90667,32.925,Fell,0
Seagraves (b),1976,4600,-102.5,32.91722,Found,0
Ucera,1970,4590,-69.85,11.05,Fell,0
Dho 057,1999,4588,54.7665,19.16217,Found,0
MET 00400,2000,4584,155.75,-79.68333,Found,0
Y-793496,1979,4583,35.66667,-71.5,Found,0
Innisfree,1977,4576,-111.3375,53.415,Fell,0
Cha 003,2003,4570,0.8324,25.08683,Found,0
Dho 1597,2004,4558,54.3685,18.96133,Found,0
Daraj 146,2000,4553,11.7025,29.62778,Found,0
Amber,1934,4532,-97.88333,35.16667,Found,0
Eldee 001,2006,4514,141.24233,-31.66997,Found,0
NWA 848,2000,4508,-9.27,28.00083,Found,0
Pavlodar (pallasite),1885,4500,77.33333,51.16667,Found,0
Coolidge,1937,4500,-101.98333,38.03333,Found,0
Lincoln County,1937,4500,-103.16667,39.36667,Found,0
Hayes Center,1941,4500,-101.03333,40.51667,Found,0
Purmela,1977,4500,-98.05,29.5,Found,0
Sverdlovsk,1985,4500,62.7,57,Found,0
El Djouf 007,1989,4500,-1.81667,23.66667,Found,0
Abu Moharek,1997,4500,29.83583,27.23944,Found,0
NWA 159,1999,4500,-5.83333,30.33333,Found,0
Ortenau,1671,4500,8,48.5,Fell,0
Portugal,1796,4500,-8,38.5,Fell,0
High Possil,1804,4500,-4.23333,55.9,Fell,0
Nedagolla,1870,4500,83.48333,18.68333,Fell,0
Kalumbi,1879,4500,73.98333,17.83333,Fell,0
Nammianthal,1886,4500,79.2,12.28333,Fell,0
Mokoia,1908,4500,174.4,-39.63333,Fell,0
Baroti,1910,4500,76.8,31.61667,Fell,0
Mardan,1948,4500,72.08333,34.23333,Fell,0
Edjudina,1969,4480,122.18167,-29.58639,Found,0
Dho 1280,2005,4473,54.25547,18.27717,Found,0
Dho 012,2000,4472,54.23333,18.35833,Found,0
Ararki,2001,4460,74.44,29.06,Found,0
Kushiike,1920,4460,138.38333,37.05,Fell,0
RaS 286,2009,4445,55.77547,20.50788,Found,0
Ouadangou,2003,4440,0.08,12.9,Fell,0
Acfer 190,1990,4439,4.3,27.7,Found,0
Lewiston,1983,4416,-103.60278,34.00833,Found,0
HaH 040,1990,4411,11.83333,29.1,Found,0
EET 87501,1987,4403,156.08694,-76.04325,Found,0
Grassland,1964,4400,-101.58333,33.11667,Found,0
Little River (a),1967,4400,-98.01667,38.38333,Found,0
Dalhart,1968,4400,-102.40833,36.04333,Found,0
North West Forrest (E6),1971,4400,127.81667,-30.6,Found,0
Waverly,1983,4400,-85.56667,32.68333,Found,0
Assamakka,2002,4400,5.91667,19.26667,Found,0
Muddoor,1865,4400,77.01667,12.63333,Fell,0
Dho 094,1999,4395,54.56667,18.665,Found,0
Dho 1677,2011,4388,54.51565,19.36518,Found,0
Wallareenya,1965,4386,118.83333,-20.66667,Found,0
HaH 118,1995,4382,13.34467,28.66833,Found,0
Patora,1969,4375,82.05,20.93694,Fell,0
Vicenice,1911,4370,15.8,49.21667,Found,0
GRO 85213,1985,4364,175,-85.66667,Found,0
GRV 021603,2003,4360,75.29639,-72.82278,Found,0
A-881977,1988,4343,26,-72,Found,0
UaS 032,2010,4335,55.57372,21.04832,Found,0
Plateau du Tademait 002,2002,4334,0.6665,28.29767,Found,0
Dolores,2001,4333,-69.95,-19.65,Found,0
Llano River,1975,4318,-99.73698,30.52213,Found,0
Powellsville,1990,4310,-82.78333,38.66667,Found,0
BTNA78002,1978,4301,153.5,-80.25,Found,0
Pevensey,1868,4300,144.66667,-34.78333,Found,0
McLean,1939,4300,-100.6,35.23333,Found,0
Rush County,1948,4300,-85.5,39.5,Found,0
Lone Star,1965,4300,-101.40833,34.25972,Found,0
Sunray,1985,4300,-101.83333,36,Found,0
Rumanovï¿½ï¿½,1994,4300,17.866,48.348,Found,0
Charlotte,1835,4300,-87.33333,36.16667,Fell,0
Ferrette,1947,4300,7.31667,47.5,Fell,0
Koï¿½ï¿½ice,2010,4300,21.17633,48.76367,Fell,0
Giroux,1954,4275,-96.55,49.61667,Found,0
SaU 075,2001,4261,57.14067,20.6845,Found,0
Crumlin,1902,4255,-6.21667,54.61667,Fell,0
DaG 502,1997,4242,16.11533,27.28883,Found,0
Raguli,1972,4239,43.7,45.7,Found,0
Adhi Kot,1919,4239,71.8,32.1,Fell,0
DaG 318,1997,4236,15.873,27.14317,Found,0
JaH 111,2004,4235,56.96172,19.6604,Found,0
Y-792769,1979,4232,35.66667,-71.5,Found,0
Grady (1933),1933,4230,-103.31667,34.8,Found,0
Dho 975,2004,4230,54.91858,19.21939,Found,0
SaU 187,2002,4211,57.32167,20.56945,Found,0
Hayy 001,2010,4208,57.62995,20.84132,Found,0
Farnum,1937,4200,-100.23333,40.25,Found,0
Norristown,1965,4200,-82.55,32.51667,Found,0
RaS 203,2002,4194,56.4212,20.00458,Found,0
A-881092,1988,4188,26,-72,Found,0
Falsey Draw,1995,4180,-103.93667,33.84333,Found,0
JaH 058,2000,4180,56.68707,19.80618,Found,0
Dho 1071,2000,4180,54.64743,18.85395,Found,0
Sakauchi,1913,4180,136.3,35.66667,Fell,0
Y-792770,1979,4179,35.66667,-71.5,Found,0
Elba,1966,4175,-103.21667,39.83333,Found,0
Y-74362,1974,4175,35.80278,-71.78889,Found,0
Gashua,1984,4162,11.03333,12.85,Fell,0
HaH 220,1997,4153,12.62533,28.932,Found,0
DaG 470,1998,4152,15.95233,27.78533,Found,0
DaG 1006,1999,4150,15.90067,27.203,Found,0
Wells,1985,4135,-101.93333,33.05,Found,0
ALHA77282,1977,4127,159.66667,-76.71667,Found,0
Ilafegh 002,1989,4121,1.3,21.51667,Found,0
Bakhardok,1978,4120,58,38.6,Found,0
MAC 88109,1988,4112,160.5,-84.21667,Found,0
Fluvanna (b),1976,4110,-101.16278,32.90333,Found,0
MBRA76001,1976,4108,160.32639,-77.58389,Found,0
Algoma,1887,4100,-87.46667,44.65,Found,0
Dwight,1940,4100,-96.58333,38.85,Found,0
Brownfield (1964),1964,4100,-102.18333,33.21667,Found,0
Flagler,1972,4100,-102.99,39.23,Found,0
Sioux County,1933,4100,-103.66667,42.58333,Fell,0
HaH 136,1995,4093,13.38917,28.5305,Found,0
ALHA77233,1977,4087,159.66667,-76.71667,Found,0
Dho 1548,2008,4070,54.1755,18.647,Found,0
Phulmari,1936,4064,75.5,20.13333,Found,0
QUE 97006,1997,4058,168,-84,Found,0
HaH 155,1995,4055,13.45083,28.58817,Found,0
SaU 498,2009,4053,57.335,20.532,Found,0
Chinguetti,1920,4050,-12.68333,20.25,Found,0
Kuznetzovo,1932,4047,75.33333,55.2,Fell,0
MIL 99301,1999,4037,157,-83.25,Found,0
Willaroy,1970,4030,143.2,-30.1,Found,0
LEW 87029,1987,4027,161.08333,-84.28333,Found,0
Lost Creek,1916,4018,-98.16778,39.12417,Found,0
GRO 95504,1995,4018,175,-85.66667,Found,0
EET 92001,1992,4016,156.13964,-76.03785,Found,0
DaG 1037,1999,4012,16.21667,27.33333,Found,0
JaH 221,2005,4012,56.55205,19.75643,Found,0
Laundry West,1967,4002,126.93333,-31.46667,Found,0
Dho 032,1999,4002,54.79467,19.122,Found,0
Seneca Falls,1850,4000,-76.78333,42.91667,Found,0
Jamestown,1885,4000,-98.5,46.61667,Found,0
Alt Bela,1898,4000,18.25,49.76667,Found,0
Indianola,1939,4000,-100.41667,40.23333,Found,0
Akron (1961),1961,4000,-103.16667,40.15,Found,0
Valkeala,1962,4000,26.83333,61.05,Found,0
Harlowton,1975,4000,-109.83333,46.43333,Found,0
Edmond,1983,4000,-99.91667,39.76667,Found,0
Daraj 002,1986,4000,11.69167,29.865,Found,0
DRP 88018,1988,4000,156.38333,-80.06667,Found,0
Hughes 013,1991,4000,129.11667,-30.66167,Found,0
Kalugalatenna,2003,4000,80.55,7.31667,Found,0
Sena,1773,4000,-0.05,41.71667,Fell,0
Chassigny,1815,4000,5.36667,47.71667,Fell,0
Futtehpur,1822,4000,80.81667,25.95,Fell,0
Bialystok,1827,4000,23.2,53.1,Fell,0
Shalka,1850,4000,87.3,23.1,Fell,0
Sauguis,1868,4000,-0.85,43.15,Fell,0
Mern,1878,4000,12.06667,55.05,Fell,0
Nogoya,1879,4000,-59.83333,-32.36667,Fell,0
Mazapil,1885,4000,-101.68333,24.68333,Fell,0
St. Germain-du-Pinel,1890,4000,-1.15,48.01667,Fell,0
Krasnyi Klyuch,1946,4000,56.08333,54.33333,Fell,0
ï¿½ï¿½anakkale,1964,4000,26.6,39.8,Fell,0
Lichtenberg,1973,4000,26.18333,-26.15,Fell,0
Chitenay,1978,4000,0.97667,47.47083,Fell,0
Werdama,2006,4000,21.78713,32.79732,Fell,0
Santa Lucia (2008),2008,4000,-68.489444,-31.535556,Fell,0
Nikolaevka,1935,3996,78.63333,52.45,Fell,0
UaS 009,2009,3989,56.48188,21.06493,Found,0
Ichkala,1936,3973,82.93333,58.2,Fell,0
PCA 91015,1991,3966,-69.00718,-85.67455,Found,0
JaH 079,2003,3960,55.66447,19.91455,Found,0
Acomita,1962,3956,-107.56667,35.05,Found,0
Dho 1554,2009,3954,54.15083,18.66667,Found,0
ALH 84070,1984,3952,156.8802,-76.90824,Found,0
Djermaia,1961,3950,15.05,12.73333,Fell,0
Almahata Sitta,2008,3950,32.41275,20.74575,Fell,0
MET 01002,2001,3923,159.75,-79.68333,Found,0
Catherwood,1965,3920,-107.43833,51.965,Found,0
Chisenga,1988,3920,33.395,-10.05944,Fell,0
Colony,1975,3912,-98.68333,35.35,Found,0
DaG 763,1999,3906,16.534,27.0155,Found,0
Y-792736,1979,3904,35.66667,-71.5,Found,0
PCA 91010,1991,3901,-68.34058,-85.68838,Found,0
Ulysses,1927,3900,-101.25,37.6,Found,0
Ozren,1952,3900,18.41806,44.6125,Found,0
Anson,1972,3900,-97.56167,39.33333,Found,0
Shuangyang,1971,3900,125.66667,43.5,Fell,0
Doroninsk,1805,3891,112.3,51.2,Fell,0
Wray (b),1938,3884,-102.19583,40.33083,Found,0
Benoni,1943,3880,28.41667,-26.16667,Fell,0
RaS 422,2010,3879,56.48438,20.5052,Found,0
RaS 354,2010,3874,55.59398,20.31777,Found,0
Wood's Mountain,1918,3867,-82.18333,35.68333,Found,0
WIS 90302,1990,3865,-125,-84.75,Found,0
SaU 258,2002,3864,57.33912,20.61327,Found,0
Y-793168,1979,3859,35.66667,-71.5,Found,0
Padvarninkai,1929,3858,25,55.66667,Fell,0
ALHA81016,1981,3850,158.80698,-76.73294,Found,0
Taonan,1965,3850,122.9,45.4,Fell,0
Dokachi,1903,3840,90.33333,23.5,Fell,0
ALHA81027,1981,3835,159.26305,-76.69,Found,0
Laborel,1871,3833,5.58333,44.28333,Fell,0
NWA 725,,3824,-5.05,30.6,Found,0
GRO 85200,1985,3822,175,-85.66667,Found,0
DaG 858,1999,3810,15.89583,27.20233,Found,0
Seth Ward,1977,3800,-101.64722,34.26889,Found,0
Acfer 011,1989,3800,4.16667,27.75,Found,0
Digor,2006,3800,89.33333,42.33333,Found,0
Dho 477,2001,3796,54.88417,19.18556,Found,0
ALHA77290,1977,3784,159.66667,-76.71667,Found,0
Dho 1513,2009,3782,54.53293,19.33766,Found,0
Davy (b),1981,3770,-97.70556,29.00833,Found,0
Dho 1631,2004,3770,54.40033,18.712,Found,0
Ramnagar,1940,3766,82.9,26.45,Fell,0
Moss,2006,3763,10.7,59.43333,Fell,0
Pitts,1921,3760,-83.51667,31.95,Fell,0
al-Ghanim (stone),1960,3755,53.96667,19.7,Found,0
Wessely,1831,3750,17.38333,48.95,Fell,0
OfehÌ©rtï¿½_,1900,3750,22.03333,47.88333,Fell,0
MET 00438,2000,3747,155.75,-79.68333,Found,0
Cerro La Tiza,2002,3740,-75.77511,-14.53321,Found,0
Mertzon,1943,3720,-100.83333,31.26667,Found,0
Kinsella,1946,3720,-111.43333,53.2,Found,0
Kulp,1906,3719,45,41.11667,Fell,0
JaH 094,2002,3714,56.77298,19.98358,Found,0
HaH 294,2000,3710,12.31667,29.1,Found,0
Hamlet,1959,3710,-86.6,41.38333,Fell,0
EET 87537,1987,3702,157.15495,-76.27247,Found,0
Soper,1938,3700,-95.58333,34.03333,Found,0
UaH 002,1996,3700,52.16667,18.5,Found,0
DaG 650,1999,3700,16.01139,27.25861,Found,0
Gila Bend,2000,3700,-112.61667,33.03333,Found,0
Siena,1794,3700,11.6,43.11667,Fell,0
Benares (a),1798,3700,82.91667,25.36667,Fell,0
Bald Mountain,1929,3700,-82.48333,35.96667,Fell,0
Chadong,1998,3700,109.31667,28.53333,Fell,0
Khanpur,1932,3698,83.11667,25.55,Fell,0
GRV 050128,2006,3695,75.26028,-72.97833,Found,0
Dho 1659,2011,3695,54.40972,18.36002,Found,0
Dho 1665,2011,3687,54.92233,19.17277,Found,0
A-882121,1988,3686,26,-72,Found,0
Shikarpur,1921,3680,87.5775,25.85,Fell,0
Dho 548,2001,3677,54.56833,19.34917,Found,0
Mount Leake,1998,3667,119.07333,-25.87667,Found,0
Jesenice,2009,3667,14.05217,46.42137,Fell,0
JaH 365,2003,3665,56.04227,19.61865,Found,0
NWA 836,2000,3660,-9.01733,27.38833,Found,0
Bluebird,2002,3650,-114.19167,35.8675,Found,0
Tnz 060,2002,3650,0.2,25.28333,Found,0
PdM 014,2006,3650,-70.42219,-23.23017,Found,0
Cronstad,1877,3650,27.3,-27.7,Fell,0
SaU 489,2008,3645,56.9719,20.95935,Found,0
Florence,1922,3640,-97.76667,30.83333,Fell,0
Witchelina,1920,3637,138,-30,Found,0
Dho 167,2000,3636,54.615,19.05889,Found,0
Auburn,1867,3630,-85.5,32.63333,Found,0
Goodland,1923,3628,-101.66667,39.35,Found,0
Y-82163,1982,3622,35.66667,-71.5,Found,0
Gorlovka,1974,3618,38.08333,48.28333,Fell,0
McCook,1965,3602,-100.78333,40.02,Found,0
Salt River,1850,3600,-85.78333,37.95,Found,0
St. Francois County,1863,3600,-90.5,37.75,Found,0
Oscuro Mountains,1895,3600,-106.38333,33.63333,Found,0
Pine River,1931,3600,-89.1,44.21667,Found,0
Laketon,1937,3600,-100.66667,35.56667,Found,0
San Carlos,1942,3600,-58.76667,-35.53333,Found,0
Cee Vee,1959,3600,-100.48333,34.2,Found,0
Nazareth (b),1967,3600,-102.25,34.5,Found,0
Kittakittaooloo,1970,3600,138.13333,-28.03333,Found,0
Muleshoe,1972,3600,-102.695,34.12167,Found,0
HaH 142,1995,3600,13.01983,28.47817,Found,0
DaG 215,1996,3600,16.104,27.1275,Found,0
Dho 745,2000,3600,54.65452,18.88637,Found,0
Shiï¿½ï¿½r 102,2002,3600,53.9156,18.6262,Found,0
Udipi,1866,3600,74.78333,13.48333,Fell,0
Virba,1873,3600,22.63333,43.53333,Fell,0
San Cerre de Mallorca,1958,3600,2.65,39.58333,Fell,0
HaH 281,2000,3598,13.213,28.4925,Found,0
Del Rio,1965,3596,-100.96667,29.36667,Found,0
Mifflin,2010,3584,-90.36556,42.9075,Fell,0
Penokee,1947,3580,-99.91667,39.35,Found,0
Southampton,2001,3580,-81.37217,44.50642,Found,0
HaH 292,2000,3570,10.53783,29.021,Found,0
A-880991,1988,3569,26,-72,Found,0
JaH 586,2009,3569,56.65062,19.74288,Found,0
JaH 213,2003,3563,56.96652,19.75073,Found,0
JaH 101,2003,3563,56.96652,19.75073,Found,0
Manych,1951,3555,44.63333,45.81667,Fell,0
South Dixon,1947,3550,-89.48333,41.83333,Found,0
DaG 217,1996,3550,16.13233,27.13083,Found,0
Dho 487,2001,3549,54.76667,19.15194,Found,0
SaU 264,2002,3548,57.1949,20.69617,Found,0
Tnz 076,2003,3548,-0.5617,24.6205,Found,0
A-882021,1988,3547,26,-72,Found,0
Skiff,1966,3540,-111.86667,49.25,Found,0
NWA 540,2000,3540,-5.18333,31.1,Found,0
Dho 221,2000,3536,54.19833,18.25167,Found,0
JaH 614,2009,3533,55.31255,19.01055,Found,0
Dho 010,1999,3528,54.19833,18.33833,Found,0
DaG 998,1999,3522,15.9205,27.17433,Found,0
Mooresfort,1810,3520,-8.33333,52.45,Fell,0
Dho 646,2001,3518,54.18137,18.9942,Found,0
Las Salinas,1905,3515,-69.5,-23,Found,0
Lipovsky,1904,3500,42.51667,49.08333,Found,0
Mesa Verde Park,1922,3500,-108.5,37.16667,Found,0
Wiley,1938,3500,-102.66667,38.15,Found,0
Seibert (a),1941,3500,-102.83333,39.3,Found,0
Kaffir (b),1966,3500,-101.815,34.67167,Found,0
NWA 034,1999,3500,-3.03333,32.05,Found,0
Terranova di Sibari,1755,3500,16.33333,39.33333,Fell,0
LucÌ©,1768,3500,0.48333,47.85,Fell,0
Grosnaja,1861,3500,45.38333,43.66667,Fell,0
Rowton,1876,3500,-2.51667,52.76667,Fell,0
Hedeskoga,1922,3500,13.78333,55.46667,Fell,0
Success,1924,3500,-90.66667,36.48333,Fell,0
Kaptal-Aryk,1937,3500,73.36667,42.45,Fell,0
Villalbeto de la PeÌ±a,2004,3500,-4.66667,42.8,Fell,0
QUE 99003,1999,3492,168,-84,Found,0
JaH 312,2005,3489,55.70425,19.71902,Found,0
Acfer 091,1990,3487,4.11667,27.45,Found,0
Y-790448,1979,3480,35.66667,-71.5,Found,0
Mount Wegener,1988,3480,-23.58333,-80.7,Found,0
Wynyard,1968,3479,-104.18333,51.88333,Found,0
Idutywa,1956,3457,28.33333,-32.1,Fell,0
Dho 228,2001,3452,54.58333,19.15,Found,0
A-881073,1988,3437,26,-72,Found,0
SaU 238,2002,3436,57.31,20.55617,Found,0
Utzenstorf,1928,3422,7.55,47.11667,Fell,0
Dho 1130,2005,3420,54.935778,19.223306,Found,0
Moama,1940,3416,144.51667,-35.95,Found,0
PCA 91013,1991,3413,-68.98064,-85.67292,Found,0
Shiï¿½ï¿½r 015,2001,3409,53.9229,18.54908,Found,0
Al Huwaysah 009,2010,3408,55.41402,22.75747,Found,0
SaU 543,2011,3404,57.28693,20.51182,Found,0
New Raymer,1995,3400,-103.84033,40.62583,Found,0
Romashki,2009,3400,46.69967,50.28533,Found,0
Orvinio,1872,3400,12.93333,42.13333,Fell,0
Pacula,1881,3400,-99.3,21.05,Fell,0
LEW 86011,1986,3398,161.61113,-84.27992,Found,0
Didim,2007,3396,27.32997,37.35172,Fell,0
HaH 222,1997,3393,11.60167,29.187,Found,0
Pesyanoe,1933,3393,66.08333,55.5,Fell,0
Maralinga,1974,3388,131.26667,-30.3,Found,0
Primm,1997,3383,-115.36667,35.66667,Found,0
Acfer 125,1990,3380,4.35,27.68333,Found,0
DaG 189,1996,3370,15.94233,27.18283,Found,0
PCA 91016,1991,3367,-68.33712,-85.68834,Found,0
Ban Cho Lae,1975,3354,99.01389,19.08833,Found,0
Daraj 145,2000,3354,11.66472,29.64528,Found,0
Ekeby,1939,3336,13,56.03333,Fell,0
Y-790964,1979,3335,35.66667,-71.5,Found,0
Rewari,1929,3332,76.66667,28.2,Fell,0
A-881976,1988,3327,26,-72,Found,0
Rhine Villa,1900,3325,139.28333,-34.66667,Found,0
JaH 461,2007,3309,56.35233,19.77063,Found,0
Mercedes,1994,3301,-59.33333,-34.66667,Found,0
Ogallala,1918,3300,-101.66667,41.16667,Found,0
Erie,1965,3300,-105.05667,40.03167,Found,0
Tagounite,1989,3300,-5.6,29.96667,Found,0
Kediri,1940,3300,112.01667,-7.75,Fell,0
SaU 541,2011,3298,57.28332,20.76578,Found,0
HaH 131,1995,3295,12.89467,28.46683,Found,0
DaG 313,1997,3294,15.9015,26.80733,Found,0
Cadell,1910,3290,139.75,-34.06667,Found,0
Y-791209,1979,3288,35.66667,-71.5,Found,0
Tnz 011,1991,3287,0.36306,25.53389,Found,0
Smyer,1968,3273,-102.16667,33.58333,Found,0
A-881925,1988,3273,26,-72,Found,0
Harrison Township,1945,3263,-101.71167,38.33333,Found,0
HaH 266,2000,3263,12.86367,28.47883,Found,0
DaG 488,1997,3259,16.11667,27.26667,Found,0
Klein-Wenden,1843,3250,10.8,51.6,Fell,0
JaH 568,2009,3249,56.36713,19.70128,Found,0
Portales (a),1967,3240,-103.5,34.06667,Found,0
Y-74190,1974,3236,35.44444,-71.83056,Found,0
Dwaleni,1970,3230,31.31667,-27.2,Fell,0
ALHA77280,1977,3226,159.66667,-76.71667,Found,0
Rangala,1937,3225,72.01667,25.38333,Fell,0
